[
  {
    "agency_cd": "5s",
    "site_no": "15s",
    "station_nm": "50s",
    "site_tp_cd": "7s",
    "dec_lat_va": "16s",
    "dec_long_va": "16s",
    "coord_acy_cd": "1s",
    "dec_coord_datum_cd": "10s",
    "alt_va": "8s",
    "alt_acy_va": "3s",
    "alt_datum_cd": "10s",
    "huc_cd": "16s"
  },
  {
    "agency_cd": "USGS",
    "site_no": "06614800",
    "station_nm": "MICHIGAN RIVER NEAR CAMERON PASS, CO",
    "site_tp_cd": "ST",
    "dec_lat_va": "40.49609409",
    "dec_long_va": "-105.8650119",
    "coord_acy_cd": "F",
    "dec_coord_datum_cd": "NAD83",
    "alt_va": " 10390",
    "alt_acy_va": " 15",
    "alt_datum_cd": "NGVD29",
    "huc_cd": "10180001"
  },
  {
    "agency_cd": "USGS",
    "site_no": "06620000",
    "station_nm": "NORTH PLATTE RIVER NEAR NORTHGATE, CO",
    "site_tp_cd": "ST",
    "dec_lat_va": "40.93663889",
    "dec_long_va": "-106.3391944",
    "coord_acy_cd": "S",
    "dec_coord_datum_cd": "NAD83",
    "alt_va": " 7810.39",
    "alt_acy_va": "0.1",
    "alt_datum_cd": "NGVD29",
    "huc_cd": "10180001"
  },
  {
    "agency_cd": "USGS",
    "site_no": "06659580",
    "station_nm": "SAND CREEK AT COLORADO-WYOMING STATE LINE",
    "site_tp_cd": "ST",
    "dec_lat_va": "40.99365",
    "dec_long_va": "-105.7597028",
    "coord_acy_cd": "5",
    "dec_coord_datum_cd": "NAD83",
    "alt_va": " 7580",
    "alt_acy_va": " 10",
    "alt_datum_cd": "NGVD29",
    "huc_cd": "10180010"
  },
  {
    "agency_cd": "USGS",
    "site_no": "06696980",
    "station_nm": "TARRYALL CREEK AT UPPER STATION NEAR COMO, CO",
    "site_tp_cd": "ST",
    "dec_lat_va": "39.33943296",
    "dec_long_va": "-105.9116813",
    "coord_acy_cd": "F",
    "dec_coord_datum_cd": "NAD83",
    "alt_va": " 9935",
    "alt_acy_va": " 15",
    "alt_datum_cd": "NGVD29",
    "huc_cd": "10190001"
  },
  {
    "agency_cd": "USGS",
    "site_no": "06700000",
    "station_nm": "SOUTH PLATTE RIVER ABOVE CHEESMAN LAKE, CO.",
    "site_tp_cd": "ST",
    "dec_lat_va": "39.16276858",
    "dec_long_va": "-105.3102732",
    "coord_acy_cd": "F",
    "dec_coord_datum_cd": "NAD83",
    "alt_va": " 6845.86",
    "alt_acy_va": " 15",
    "alt_datum_cd": "NGVD29",
    "huc_cd": "10190002"
  },
  {
    "agency_cd": "USGS",
    "site_no": "06701620",
    "station_nm": "TROUT CREEK BLW FERN CR NR WESTCREEK, CO.",
    "site_tp_cd": "ST",
    "dec_lat_va": "39.16749104",
    "dec_long_va": "-105.1222112",
    "coord_acy_cd": "F",
    "dec_coord_datum_cd": "NAD83",
    "alt_va": " 7440",
    "alt_acy_va": " 20",
    "alt_datum_cd": "NGVD29",
    "huc_cd": "10190002"
  },
  {
    "agency_cd": "USGS",
    "site_no": "06701700",
    "station_nm": "WEST CR. ABV SHREWSBURY GULCH NR WESTCREEK CO",
    "site_tp_cd": "ST",
    "dec_lat_va": "39.145425",
    "dec_long_va": "-105.1600111",
    "coord_acy_cd": "1",
    "dec_coord_datum_cd": "NAD83",
    "alt_va": " 7512",
    "alt_acy_va": "4.3",
    "alt_datum_cd": "NAVD88",
    "huc_cd": "10190002"
  },
  {
    "agency_cd": "USGS",
    "site_no": "06701900",
    "station_nm": "SOUTH PLATTE RIVER BLW BRUSH CRK NEAR TRUMBULL, CO",
    "site_tp_cd": "ST",
    "dec_lat_va": "39.25999025",
    "dec_long_va": "-105.2219379",
    "coord_acy_cd": "F",
    "dec_coord_datum_cd": "NAD83",
    "alt_va": " 6380",
    "alt_acy_va": " 10",
    "alt_datum_cd": "NGVD29",
    "huc_cd": "10190002"
  },
  {
    "agency_cd": "USGS",
    "site_no": "06708600",
    "station_nm": "WEST PLUM CREEK NEAR PERRY PARK, CO",
    "site_tp_cd": "ST",
    "dec_lat_va": "39.2594722",
    "dec_long_va": "-104.9519028",
    "coord_acy_cd": "S",
    "dec_coord_datum_cd": "NAD83",
    "alt_va": " 6340",
    "alt_acy_va": " 10",
    "alt_datum_cd": "NGVD29",
    "huc_cd": "10190002"
  },
  {
    "agency_cd": "USGS",
    "site_no": "06708690",
    "station_nm": "WEST PLUM CREEK AT SEDALIA, CO",
    "site_tp_cd": "ST",
    "dec_lat_va": "39.42927778",
    "dec_long_va": "-104.9677778",
    "coord_acy_cd": "1",
    "dec_coord_datum_cd": "NAD83",
    "alt_va": " 5763",
    "alt_acy_va": "4.3",
    "alt_datum_cd": "NAVD88",
    "huc_cd": "10190002"
  },
  {
    "agency_cd": "USGS",
    "site_no": "06708800",
    "station_nm": "EAST PLUM CR ABV HASKINS GULCH NR CASTLE ROCK, CO",
    "site_tp_cd": "ST",
    "dec_lat_va": "39.423",
    "dec_long_va": "-104.9046111",
    "coord_acy_cd": "5",
    "dec_coord_datum_cd": "NAD83",
    "alt_va": " 5960",
    "alt_acy_va": " 10",
    "alt_datum_cd": "NGVD29",
    "huc_cd": "10190002"
  },
  {
    "agency_cd": "USGS",
    "site_no": "06709000",
    "station_nm": "PLUM CREEK NEAR SEDALIA, CO.",
    "site_tp_cd": "ST",
    "dec_lat_va": "39.43832246",
    "dec_long_va": "-104.9830387",
    "coord_acy_cd": "M",
    "dec_coord_datum_cd": "NAD83",
    "alt_va": " 5720",
    "alt_acy_va": " 10",
    "alt_datum_cd": "NGVD29",
    "huc_cd": "10190002"
  },
  {
    "agency_cd": "USGS",
    "site_no": "06709530",
    "station_nm": "PLUM CREEK AT TITAN ROAD NEAR LOUVIERS, CO",
    "site_tp_cd": "ST",
    "dec_lat_va": "39.50736944",
    "dec_long_va": "-105.0244667",
    "coord_acy_cd": "5",
    "dec_coord_datum_cd": "NAD83",
    "alt_va": " 5520",
    "alt_acy_va": " 10",
    "alt_datum_cd": "NGVD29",
    "huc_cd": "10190002"
  },
  {
    "agency_cd": "USGS",
    "site_no": "06709740",
    "station_nm": "LEE GULCH AT LITTLETON, CO",
    "site_tp_cd": "ST",
    "dec_lat_va": "39.5961111",
    "dec_long_va": "-105.0160278",
    "coord_acy_cd": "5",
    "dec_coord_datum_cd": "NAD83",
    "alt_va": " 5365",
    "alt_acy_va": " 10",
    "alt_datum_cd": "NGVD29",
    "huc_cd": "10190002"
  },
  {
    "agency_cd": "USGS",
    "site_no": "06709910",
    "station_nm": "DUTCH CR AT PLATTE CANYON DRIVE NEAR LITTLETON, CO",
    "site_tp_cd": "ST",
    "dec_lat_va": "39.6001111",
    "dec_long_va": "-105.0419222",
    "coord_acy_cd": "S",
    "dec_coord_datum_cd": "NAD83",
    "alt_va": " 5360",
    "alt_acy_va": " 20",
    "alt_datum_cd": "NGVD29",
    "huc_cd": "10190002"
  },
  {
    "agency_cd": "USGS",
    "site_no": "06710150",
    "station_nm": "BIG DRY CREEK BELOW C-470 AT HIGHLANDS RANCH, CO",
    "site_tp_cd": "ST",
    "dec_lat_va": "39.5633216",
    "dec_long_va": "-104.927758",
    "coord_acy_cd": "R",
    "dec_coord_datum_cd": "NAD83",
    "alt_va": " 5675",
    "alt_acy_va": " 10",
    "alt_datum_cd": "NGVD29",
    "huc_cd": "10190002"
  },
  {
    "agency_cd": "USGS",
    "site_no": "06710247",
    "station_nm": "SOUTH PLATTE RIVER BELOW UNION AVE, AT ENGLEWOOD,C",
    "site_tp_cd": "ST",
    "dec_lat_va": "39.6324876",
    "dec_long_va": "-105.014983",
    "coord_acy_cd": "F",
    "dec_coord_datum_cd": "NAD83",
    "alt_va": " 5290",
    "alt_acy_va": " 20",
    "alt_datum_cd": "NGVD29",
    "huc_cd": "10190002"
  },
  {
    "agency_cd": "USGS",
    "site_no": "06710385",
    "station_nm": "BEAR CREEK ABOVE EVERGREEN, CO",
    "site_tp_cd": "ST",
    "dec_lat_va": "39.63316667",
    "dec_long_va": "-105.3369444",
    "coord_acy_cd": "S",
    "dec_coord_datum_cd": "NAD83",
    "alt_va": " 7080",
    "alt_acy_va": " 10",
    "alt_datum_cd": "NGVD29",
    "huc_cd": "10190002"
  },
  {
    "agency_cd": "USGS",
    "site_no": "06710605",
    "station_nm": "BEAR CREEK ABOVE BEAR CREEK LAKE NEAR MORRISON, CO",
    "site_tp_cd": "ST",
    "dec_lat_va": "39.65202778",
    "dec_long_va": "-105.17325",
    "coord_acy_cd": "5",
    "dec_coord_datum_cd": "NAD83",
    "alt_va": " 5645",
    "alt_acy_va": " 20",
    "alt_datum_cd": "NGVD29",
    "huc_cd": "10190002"
  },
  {
    "agency_cd": "USGS",
    "site_no": "06711040",
    "station_nm": "TURKEY CREEK ABOVE BEAR CREEK LAKE NEAR MORRISON C",
    "site_tp_cd": "ST",
    "dec_lat_va": "39.6407083",
    "dec_long_va": "-105.15935",
    "coord_acy_cd": "T",
    "dec_coord_datum_cd": "NAD83",
    "alt_va": " 5654",
    "alt_acy_va": "1.6",
    "alt_datum_cd": "NAVD88",
    "huc_cd": "10190002"
  },
  {
    "agency_cd": "USGS",
    "site_no": "06711515",
    "station_nm": "LITTLE DRY CREEK NR ARAPAHOE RD AT CENTENNIAL, CO",
    "site_tp_cd": "ST",
    "dec_lat_va": "39.5937361",
    "dec_long_va": "-104.9065",
    "coord_acy_cd": "5",
    "dec_coord_datum_cd": "NAD83",
    "alt_va": " 5600",
    "alt_acy_va": " 20",
    "alt_datum_cd": "NGVD29",
    "huc_cd": "10190002"
  },
  {
    "agency_cd": "USGS",
    "site_no": "06711555",
    "station_nm": "LITTLE DRY CREEK ABOVE ENGLEWOOD, CO",
    "site_tp_cd": "ST",
    "dec_lat_va": "39.6491542",
    "dec_long_va": "-104.9788705",
    "coord_acy_cd": "F",
    "dec_coord_datum_cd": "NAD83",
    "alt_va": " 5420",
    "alt_acy_va": " 20",
    "alt_datum_cd": "NGVD29",
    "huc_cd": "10190002"
  },
  {
    "agency_cd": "USGS",
    "site_no": "06711565",
    "station_nm": "SOUTH PLATTE RIVER AT ENGLEWOOD, CO.",
    "site_tp_cd": "ST",
    "dec_lat_va": "39.66498738",
    "dec_long_va": "-105.004149",
    "coord_acy_cd": "M",
    "dec_coord_datum_cd": "NAD83",
    "alt_va": " 5250",
    "alt_acy_va": " 10",
    "alt_datum_cd": "NGVD29",
    "huc_cd": "10190002"
  },
  {
    "agency_cd": "USGS",
    "site_no": "06711570",
    "station_nm": "HARVARD GULCH AT COLORADO BLVD. AT DENVER, CO",
    "site_tp_cd": "ST",
    "dec_lat_va": "39.66920278",
    "dec_long_va": "-104.9425083",
    "coord_acy_cd": "S",
    "dec_coord_datum_cd": "NAD83",
    "alt_va": " 5400",
    "alt_acy_va": " 10",
    "alt_datum_cd": "NGVD29",
    "huc_cd": "10190002"
  },
  {
    "agency_cd": "USGS",
    "site_no": "06711575",
    "station_nm": "HARVARD GULCH AT HARVARD PARK AT DENVER, CO",
    "site_tp_cd": "ST",
    "dec_lat_va": "39.6717222",
    "dec_long_va": "-104.9770278",
    "coord_acy_cd": "S",
    "dec_coord_datum_cd": "NAD83",
    "alt_va": " 5320",
    "alt_acy_va": " 15",
    "alt_datum_cd": "NGVD29",
    "huc_cd": "10190002"
  },
  {
    "agency_cd": "USGS",
    "site_no": "06711618",
    "station_nm": "WEIR GULCH UPSTREAM FROM 1ST AVE. AT DENVER, CO",
    "site_tp_cd": "ST",
    "dec_lat_va": "39.7172472",
    "dec_long_va": "-105.0420111",
    "coord_acy_cd": "5",
    "dec_coord_datum_cd": "NAD83",
    "alt_va": " 5295",
    "alt_acy_va": " 10",
    "alt_datum_cd": "NGVD29",
    "huc_cd": "10190002"
  },
  {
    "agency_cd": "USGS",
    "site_no": "06711770",
    "station_nm": "DRY GULCH AT DENVER, CO",
    "site_tp_cd": "ST",
    "dec_lat_va": "39.734375",
    "dec_long_va": "-105.0395556",
    "coord_acy_cd": "F",
    "dec_coord_datum_cd": "NAD83",
    "alt_va": " 5250",
    "alt_acy_va": " 20",
    "alt_datum_cd": "NGVD29",
    "huc_cd": "10190002"
  },
  {
    "agency_cd": "USGS",
    "site_no": "06711780",
    "station_nm": "LAKEWOOD GULCH AT DENVER, CO",
    "site_tp_cd": "ST",
    "dec_lat_va": "39.73519444",
    "dec_long_va": "-105.0313611",
    "coord_acy_cd": "5",
    "dec_coord_datum_cd": "NAD83",
    "alt_va": " 5220",
    "alt_acy_va": " 15",
    "alt_datum_cd": "NGVD29",
    "huc_cd": "10190002"
  },
  {
    "agency_cd": "USGS",
    "site_no": "06712000",
    "station_nm": "CHERRY CREEK NEAR FRANKTOWN, CO.",
    "site_tp_cd": "ST",
    "dec_lat_va": "39.3558234",
    "dec_long_va": "-104.7633092",
    "coord_acy_cd": "F",
    "dec_coord_datum_cd": "NAD83",
    "alt_va": " 6150.00",
    "alt_acy_va": " 15",
    "alt_datum_cd": "NGVD29",
    "huc_cd": "10190003"
  },
  {
    "agency_cd": "USGS",
    "site_no": "06713000",
    "station_nm": "CHERRY CREEK BELOW CHERRY CREEK LAKE, CO",
    "site_tp_cd": "ST",
    "dec_lat_va": "39.65359899",
    "dec_long_va": "-104.8630326",
    "coord_acy_cd": "M",
    "dec_coord_datum_cd": "NAD83",
    "alt_va": " 5487.51",
    "alt_acy_va": " 10",
    "alt_datum_cd": "NGVD29",
    "huc_cd": "10190003"
  },
  {
    "agency_cd": "USGS",
    "site_no": "06713300",
    "station_nm": "CHERRY CREEK AT GLENDALE, CO",
    "site_tp_cd": "ST",
    "dec_lat_va": "39.7060984",
    "dec_long_va": "-104.9374795",
    "coord_acy_cd": "M",
    "dec_coord_datum_cd": "NAD83",
    "alt_va": " 5320.00",
    "alt_acy_va": " 10",
    "alt_datum_cd": "NGVD29",
    "huc_cd": "10190003"
  },
  {
    "agency_cd": "USGS",
    "site_no": "06713500",
    "station_nm": "CHERRY CREEK AT DENVER, CO.",
    "site_tp_cd": "ST",
    "dec_lat_va": "39.74248685",
    "dec_long_va": "-104.9999817",
    "coord_acy_cd": "M",
    "dec_coord_datum_cd": "NAD83",
    "alt_va": " 5180.48",
    "alt_acy_va": " 10",
    "alt_datum_cd": "NGVD29",
    "huc_cd": "10190003"
  },
  {
    "agency_cd": "USGS",
    "site_no": "06714215",
    "station_nm": "SOUTH PLATTE R AT 64TH AVE. COMMERCE CITY, CO.",
    "site_tp_cd": "ST",
    "dec_lat_va": "39.81220846",
    "dec_long_va": "-104.9583129",
    "coord_acy_cd": "F",
    "dec_coord_datum_cd": "NAD83",
    "alt_va": " 5105.00",
    "alt_acy_va": " 15",
    "alt_datum_cd": "NGVD29",
    "huc_cd": "10190003"
  },
  {
    "agency_cd": "USGS",
    "site_no": "06714360",
    "station_nm": "SAND CRK ABV BURLINGTON DITCH NR COMMERCE CITY, CO",
    "site_tp_cd": "ST",
    "dec_lat_va": "39.81025",
    "dec_long_va": "-104.9503333",
    "coord_acy_cd": "F",
    "dec_coord_datum_cd": "NAD83",
    "alt_va": " 5122",
    "alt_acy_va": "1.6",
    "alt_datum_cd": "NAVD88",
    "huc_cd": "10190003"
  },
  {
    "agency_cd": "USGS",
    "site_no": "06714400",
    "station_nm": "S CLEAR CR ABV LOWER CABIN CR RES NR GEORGETOWN,CO",
    "site_tp_cd": "ST",
    "dec_lat_va": "39.64900556",
    "dec_long_va": "-105.7074833",
    "coord_acy_cd": "5",
    "dec_coord_datum_cd": "NAD83",
    "alt_va": " 10060",
    "alt_acy_va": " 20",
    "alt_datum_cd": "NGVD29",
    "huc_cd": "10190004"
  },
  {
    "agency_cd": "USGS",
    "site_no": "06714500",
    "station_nm": "S CLEAR CR ABV LWR CABIN CR RES SPILWY NR GEORGTWN",
    "site_tp_cd": "ST",
    "dec_lat_va": "39.6631",
    "dec_long_va": "-105.7063278",
    "coord_acy_cd": "5",
    "dec_coord_datum_cd": "NAD83",
    "alt_va": " 9969",
    "alt_acy_va": "4.3",
    "alt_datum_cd": "NAVD88",
    "huc_cd": "10190004"
  },
  {
    "agency_cd": "USGS",
    "site_no": "06714800",
    "station_nm": "LEAVENWORTH CREEK AT MOUTH NEAR GEORGETOWN, CO",
    "site_tp_cd": "ST",
    "dec_lat_va": "39.68720955",
    "dec_long_va": "-105.7002821",
    "coord_acy_cd": "F",
    "dec_coord_datum_cd": "NAD83",
    "alt_va": " 9280",
    "alt_acy_va": " 20",
    "alt_datum_cd": "NGVD29",
    "huc_cd": "10190004"
  },
  {
    "agency_cd": "USGS",
    "site_no": "06715000",
    "station_nm": "CLEAR CREEK ABV WEST FORK CLEAR CREEK NR EMPIRE CO",
    "site_tp_cd": "ST",
    "dec_lat_va": "39.7519319",
    "dec_long_va": "-105.661947",
    "coord_acy_cd": "F",
    "dec_coord_datum_cd": "NAD83",
    "alt_va": " 8280",
    "alt_acy_va": " 20",
    "alt_datum_cd": "NGVD29",
    "huc_cd": "10190004"
  },
  {
    "agency_cd": "USGS",
    "site_no": "06716100",
    "station_nm": "WEST FORK CLEAR CREEK ABV MOUTH NR EMPIRE, CO",
    "site_tp_cd": "ST",
    "dec_lat_va": "39.75887636",
    "dec_long_va": "-105.6600025",
    "coord_acy_cd": "F",
    "dec_coord_datum_cd": "NAD83",
    "alt_va": " 8235",
    "alt_acy_va": " 20",
    "alt_datum_cd": "NGVD29",
    "huc_cd": "10190004"
  },
  {
    "agency_cd": "USGS",
    "site_no": "06716500",
    "station_nm": "CLEAR CREEK NEAR LAWSON, CO",
    "site_tp_cd": "ST",
    "dec_lat_va": "39.7658209",
    "dec_long_va": "-105.6261123",
    "coord_acy_cd": "F",
    "dec_coord_datum_cd": "NAD83",
    "alt_va": " 8070.52",
    "alt_acy_va": ".16",
    "alt_datum_cd": "NAVD88",
    "huc_cd": "10190004"
  },
  {
    "agency_cd": "USGS",
    "site_no": "06718550",
    "station_nm": "NORTH CLEAR CREEK ABOVE MOUTH NR BLACK HAWK, CO",
    "site_tp_cd": "ST",
    "dec_lat_va": "39.74887674",
    "dec_long_va": "-105.3997159",
    "coord_acy_cd": "F",
    "dec_coord_datum_cd": "NAD83",
    "alt_va": " 6910",
    "alt_acy_va": " 20",
    "alt_datum_cd": "NGVD29",
    "huc_cd": "10190004"
  },
  {
    "agency_cd": "USGS",
    "site_no": "06719505",
    "station_nm": "CLEAR CREEK AT GOLDEN, CO",
    "site_tp_cd": "ST",
    "dec_lat_va": "39.75304299",
    "dec_long_va": "-105.2352667",
    "coord_acy_cd": "F",
    "dec_coord_datum_cd": "NAD83",
    "alt_va": " 5695",
    "alt_acy_va": " 15",
    "alt_datum_cd": "NGVD29",
    "huc_cd": "10190004"
  },
  {
    "agency_cd": "USGS",
    "site_no": "06719560",
    "station_nm": "LENA GULCH AT LAKEWOOD, CO",
    "site_tp_cd": "ST",
    "dec_lat_va": "39.74040278",
    "dec_long_va": "-105.1488333",
    "coord_acy_cd": "5",
    "dec_coord_datum_cd": "NAD83",
    "alt_va": " 5610",
    "alt_acy_va": " 15",
    "alt_datum_cd": "NGVD29",
    "huc_cd": "10190004"
  },
  {
    "agency_cd": "USGS",
    "site_no": "06719840",
    "station_nm": "LITTLE DRY CREEK AT WESTMINSTER, CO",
    "site_tp_cd": "ST",
    "dec_lat_va": "39.82655278",
    "dec_long_va": "-105.0400639",
    "coord_acy_cd": "5",
    "dec_coord_datum_cd": "NAD83",
    "alt_va": " 5275",
    "alt_acy_va": " 15",
    "alt_datum_cd": "NGVD29",
    "huc_cd": "10190004"
  },
  {
    "agency_cd": "USGS",
    "site_no": "06719845",
    "station_nm": "LITTLE DRY CRK BLW FEDERAL BLVD AT WESTMINSTER, CO",
    "site_tp_cd": "ST",
    "dec_lat_va": "39.81936667",
    "dec_long_va": "-105.0214472",
    "coord_acy_cd": "T",
    "dec_coord_datum_cd": "NAD83",
    "alt_va": " 5232",
    "alt_acy_va": "1.6",
    "alt_datum_cd": "NAVD88",
    "huc_cd": "10190004"
  },
  {
    "agency_cd": "USGS",
    "site_no": "06720460",
    "station_nm": "FIRST CR BEL BUCKLEY RD, AT ROCKY MTN ARSENAL, CO",
    "site_tp_cd": "ST",
    "dec_lat_va": "39.8080421",
    "dec_long_va": "-104.7938618",
    "coord_acy_cd": "S",
    "dec_coord_datum_cd": "NAD83",
    "alt_va": " 5289.63",
    "alt_acy_va": "1.0",
    "alt_datum_cd": "NGVD29",
    "huc_cd": "10190003"
  },
  {
    "agency_cd": "USGS",
    "site_no": "06720820",
    "station_nm": "BIG DRY CREEK AT WESTMINSTER, CO",
    "site_tp_cd": "ST",
    "dec_lat_va": "39.90568056",
    "dec_long_va": "-105.0353889",
    "coord_acy_cd": "S",
    "dec_coord_datum_cd": "NAD83",
    "alt_va": " 5215",
    "alt_acy_va": " 10",
    "alt_datum_cd": "NGVD29",
    "huc_cd": "10190003"
  },
  {
    "agency_cd": "USGS",
    "site_no": "06720990",
    "station_nm": "BIG DRY CREEK AT MOUTH NEAR FORT LUPTON, CO",
    "site_tp_cd": "ST",
    "dec_lat_va": "40.0688333",
    "dec_long_va": "-104.8319861",
    "coord_acy_cd": "S",
    "dec_coord_datum_cd": "NAD83",
    "alt_va": " 4900",
    "alt_acy_va": " 10",
    "alt_datum_cd": "NGVD29",
    "huc_cd": "10190003"
  },
  {
    "agency_cd": "USGS",
    "site_no": "06721000",
    "station_nm": "SOUTH PLATTE RIVER AT FORT LUPTON, CO.",
    "site_tp_cd": "ST",
    "dec_lat_va": "40.11609435",
    "dec_long_va": "-104.8185831",
    "coord_acy_cd": "R",
    "dec_coord_datum_cd": "NAD83",
    "alt_va": " 4860",
    "alt_acy_va": " 10",
    "alt_datum_cd": "NGVD29",
    "huc_cd": "10190003"
  },
  {
    "agency_cd": "USGS",
    "site_no": "06724970",
    "station_nm": "LEFT HAND CREEK AT HOVER ROAD NEAR LONGMONT, CO",
    "site_tp_cd": "ST",
    "dec_lat_va": "40.13427778",
    "dec_long_va": "-105.1308194",
    "coord_acy_cd": "M",
    "dec_coord_datum_cd": "NAD83",
    "alt_va": " 4994",
    "alt_acy_va": "4.3",
    "alt_datum_cd": "NAVD88",
    "huc_cd": "10190005"
  },
  {
    "agency_cd": "USGS",
    "site_no": "06727500",
    "station_nm": "FOURMILE CREEK AT ORODELL, CO",
    "site_tp_cd": "ST",
    "dec_lat_va": "40.01866667",
    "dec_long_va": "-105.32625",
    "coord_acy_cd": "5",
    "dec_coord_datum_cd": "NAD83",
    "alt_va": " 5750",
    "alt_acy_va": " 15",
    "alt_datum_cd": "NGVD29",
    "huc_cd": "10190005"
  },
  {
    "agency_cd": "USGS",
    "site_no": "06730160",
    "station_nm": "FOURMILE CANYON CREEK NEAR SUNSHINE, CO",
    "site_tp_cd": "ST",
    "dec_lat_va": "40.0576111",
    "dec_long_va": "-105.3487778",
    "coord_acy_cd": "S",
    "dec_coord_datum_cd": "NAD83",
    "alt_va": " 6639",
    "alt_acy_va": "4.3",
    "alt_datum_cd": "NAVD88",
    "huc_cd": "10190005"
  },
  {
    "agency_cd": "USGS",
    "site_no": "06730200",
    "station_nm": "BOULDER CREEK AT NORTH 75TH ST. NEAR BOULDER, CO",
    "site_tp_cd": "ST",
    "dec_lat_va": "40.05165184",
    "dec_long_va": "-105.1788754",
    "coord_acy_cd": "M",
    "dec_coord_datum_cd": "NAD83",
    "alt_va": " 5106",
    "alt_acy_va": " 10",
    "alt_datum_cd": "NGVD29",
    "huc_cd": "10190005"
  },
  {
    "agency_cd": "USGS",
    "site_no": "06730500",
    "station_nm": "BOULDER CREEK AT MOUTH NEAR LONGMONT, CO",
    "site_tp_cd": "ST",
    "dec_lat_va": "40.13877778",
    "dec_long_va": "-105.0202222",
    "coord_acy_cd": "5",
    "dec_coord_datum_cd": "NAD83",
    "alt_va": " 4860",
    "alt_acy_va": " 10",
    "alt_datum_cd": "NGVD29",
    "huc_cd": "10190005"
  },
  {
    "agency_cd": "USGS",
    "site_no": "06730525",
    "station_nm": "ST VRAIN CR BLW BOULDER CR AT HWY 119 NR LONGMONT",
    "site_tp_cd": "ST",
    "dec_lat_va": "40.16046667",
    "dec_long_va": "-105.0079361",
    "coord_acy_cd": "T",
    "dec_coord_datum_cd": "NAD83",
    "alt_va": " 4849",
    "alt_acy_va": "4.3",
    "alt_datum_cd": "NAVD88",
    "huc_cd": "10190005"
  },
  {
    "agency_cd": "USGS",
    "site_no": "06741510",
    "station_nm": "BIG THOMPSON RIVER AT LOVELAND, CO.",
    "site_tp_cd": "ST",
    "dec_lat_va": "40.3785946",
    "dec_long_va": "-105.0610909",
    "coord_acy_cd": "F",
    "dec_coord_datum_cd": "NAD83",
    "alt_va": " 4906.00",
    "alt_acy_va": " 15",
    "alt_datum_cd": "NGVD29",
    "huc_cd": "10190006"
  },
  {
    "agency_cd": "USGS",
    "site_no": "06746095",
    "station_nm": "JOE WRIGHT CREEK ABOVE JOE WRIGHT RESERVOIR, CO",
    "site_tp_cd": "ST",
    "dec_lat_va": "40.5399822",
    "dec_long_va": "-105.88279",
    "coord_acy_cd": "F",
    "dec_coord_datum_cd": "NAD83",
    "alt_va": " 9990",
    "alt_acy_va": " 15",
    "alt_datum_cd": "NGVD29",
    "huc_cd": "10190007"
  },
  {
    "agency_cd": "USGS",
    "site_no": "06746110",
    "station_nm": "JOE WRIGHT CREEK BELOW JOE WRIGHT RESERVOIR, CO",
    "site_tp_cd": "ST",
    "dec_lat_va": "40.5619264",
    "dec_long_va": "-105.8639",
    "coord_acy_cd": "M",
    "dec_coord_datum_cd": "NAD83",
    "alt_va": " 9710",
    "alt_acy_va": " 10",
    "alt_datum_cd": "NGVD29",
    "huc_cd": "10190007"
  },
  {
    "agency_cd": "USGS",
    "site_no": "06751150",
    "station_nm": "N FK CACHE LA POUDRE R BLW HALLIGAN RES NR VA DALE",
    "site_tp_cd": "ST",
    "dec_lat_va": "40.87831637",
    "dec_long_va": "-105.3380411",
    "coord_acy_cd": "F",
    "dec_coord_datum_cd": "NAD83",
    "alt_va": " 6310",
    "alt_acy_va": " 10",
    "alt_datum_cd": "NGVD29",
    "huc_cd": "10190007"
  },
  {
    "agency_cd": "USGS",
    "site_no": "06751490",
    "station_nm": "NORTH FORK CACHE LA POUDRE RIVER AT LIVERMORE, CO",
    "site_tp_cd": "ST",
    "dec_lat_va": "40.7874815",
    "dec_long_va": "-105.2522047",
    "coord_acy_cd": "F",
    "dec_coord_datum_cd": "NAD83",
    "alt_va": " 5715",
    "alt_acy_va": " 15",
    "alt_datum_cd": "NGVD29",
    "huc_cd": "10190007"
  },
  {
    "agency_cd": "USGS",
    "site_no": "06752260",
    "station_nm": "CACHE LA POUDRE RIVER AT FORT COLLINS, CO",
    "site_tp_cd": "ST",
    "dec_lat_va": "40.5880833",
    "dec_long_va": "-105.0692222",
    "coord_acy_cd": "5",
    "dec_coord_datum_cd": "NAD83",
    "alt_va": " 4940",
    "alt_acy_va": " 10",
    "alt_datum_cd": "NGVD29",
    "huc_cd": "10190007"
  },
  {
    "agency_cd": "USGS",
    "site_no": "06752280",
    "station_nm": "CACHE LA POUDRE RIV AB BOXELDER CRK NR TIMNATH, CO",
    "site_tp_cd": "ST",
    "dec_lat_va": "40.5519269",
    "dec_long_va": "-105.011365",
    "coord_acy_cd": "M",
    "dec_coord_datum_cd": "NAD83",
    "alt_va": " 4860",
    "alt_acy_va": " 10",
    "alt_datum_cd": "NGVD29",
    "huc_cd": "10190007"
  },
  {
    "agency_cd": "USGS",
    "site_no": "06754000",
    "station_nm": "SOUTH PLATTE RIVER NEAR KERSEY, CO",
    "site_tp_cd": "ST",
    "dec_lat_va": "40.4119253",
    "dec_long_va": "-104.5627366",
    "coord_acy_cd": "M",
    "dec_coord_datum_cd": "NAD83",
    "alt_va": " 4578.02",
    "alt_acy_va": " 10",
    "alt_datum_cd": "NAVD88",
    "huc_cd": "10190003"
  },
  {
    "agency_cd": "USGS",
    "site_no": "06759500",
    "station_nm": "SOUTH PLATTE RIVER AT FORT MORGAN, CO",
    "site_tp_cd": "ST",
    "dec_lat_va": "40.26840278",
    "dec_long_va": "-103.8011917",
    "coord_acy_cd": "5",
    "dec_coord_datum_cd": "NAD83",
    "alt_va": " 4246.09",
    "alt_acy_va": " .1",
    "alt_datum_cd": "NAVD88",
    "huc_cd": "10190012"
  },
  {
    "agency_cd": "USGS",
    "site_no": "07079300",
    "station_nm": "EF ARKANSAS R AT US HIGHWAY 24, NR LEADVILLE, CO.",
    "site_tp_cd": "ST",
    "dec_lat_va": "39.2724892",
    "dec_long_va": "-106.3064133",
    "coord_acy_cd": "F",
    "dec_coord_datum_cd": "NAD83",
    "alt_va": " 9900.00",
    "alt_acy_va": " 15",
    "alt_datum_cd": "NGVD29",
    "huc_cd": "11020001"
  },
  {
    "agency_cd": "USGS",
    "site_no": "07081200",
    "station_nm": "ARKANSAS RIVER NEAR LEADVILLE, CO",
    "site_tp_cd": "ST",
    "dec_lat_va": "39.249",
    "dec_long_va": "-106.3481111",
    "coord_acy_cd": "5",
    "dec_coord_datum_cd": "NAD83",
    "alt_va": " 9665",
    "alt_acy_va": " 10",
    "alt_datum_cd": "NGVD29",
    "huc_cd": "11020001"
  },
  {
    "agency_cd": "USGS",
    "site_no": "07083000",
    "station_nm": "HALFMOON CREEK NEAR MALTA, CO",
    "site_tp_cd": "ST",
    "dec_lat_va": "39.17221259",
    "dec_long_va": "-106.3891926",
    "coord_acy_cd": "F",
    "dec_coord_datum_cd": "NAD83",
    "alt_va": " 9830",
    "alt_acy_va": " 15",
    "alt_datum_cd": "NGVD29",
    "huc_cd": "11020001"
  },
  {
    "agency_cd": "USGS",
    "site_no": "07083200",
    "station_nm": "HALFMOON CR BL HALFMOON DIVERSION NR LEADVILLE, CO",
    "site_tp_cd": "ST",
    "dec_lat_va": "39.1857222",
    "dec_long_va": "-106.3833611",
    "coord_acy_cd": "S",
    "dec_coord_datum_cd": "NAD83",
    "alt_va": " 9720",
    "alt_acy_va": " 10",
    "alt_datum_cd": "NAVD88",
    "huc_cd": "11020001"
  },
  {
    "agency_cd": "USGS",
    "site_no": "07083710",
    "station_nm": "ARKANSAS RIVER BELOW EMPIRE GULCH NEAR MALTA, CO",
    "site_tp_cd": "ST",
    "dec_lat_va": "39.1638798",
    "dec_long_va": "-106.320024",
    "coord_acy_cd": "F",
    "dec_coord_datum_cd": "NAD83",
    "alt_va": " 9280",
    "alt_acy_va": " 10",
    "alt_datum_cd": "NGVD29",
    "huc_cd": "11020001"
  },
  {
    "agency_cd": "USGS",
    "site_no": "07086000",
    "station_nm": "ARKANSAS RIVER AT GRANITE, CO.",
    "site_tp_cd": "ST",
    "dec_lat_va": "39.04277116",
    "dec_long_va": "-106.2658553",
    "coord_acy_cd": "F",
    "dec_coord_datum_cd": "NAD83",
    "alt_va": " 8914.86",
    "alt_acy_va": " 15",
    "alt_datum_cd": "NGVD29",
    "huc_cd": "11020001"
  },
  {
    "agency_cd": "USGS",
    "site_no": "07087050",
    "station_nm": "ARKANSAS RIVER BELOW GRANITE, CO",
    "site_tp_cd": "ST",
    "dec_lat_va": "38.9949943",
    "dec_long_va": "-106.2202983",
    "coord_acy_cd": "R",
    "dec_coord_datum_cd": "NAD83",
    "alt_va": " 8620",
    "alt_acy_va": " 10",
    "alt_datum_cd": "NGVD29",
    "huc_cd": "11020001"
  },
  {
    "agency_cd": "USGS",
    "site_no": "07091200",
    "station_nm": "ARKANSAS RIVER NEAR NATHROP, CO",
    "site_tp_cd": "ST",
    "dec_lat_va": "38.6522188",
    "dec_long_va": "-106.051126",
    "coord_acy_cd": "F",
    "dec_coord_datum_cd": "NAD83",
    "alt_va": " 7350",
    "alt_acy_va": " 15",
    "alt_datum_cd": "NGVD29",
    "huc_cd": "11020001"
  },
  {
    "agency_cd": "USGS",
    "site_no": "07093700",
    "station_nm": "ARKANSAS RIVER NEAR WELLSVILLE, CO.",
    "site_tp_cd": "ST",
    "dec_lat_va": "38.50277496",
    "dec_long_va": "-105.9397333",
    "coord_acy_cd": "F",
    "dec_coord_datum_cd": "NAD83",
    "alt_va": " 6883.40",
    "alt_acy_va": " 15",
    "alt_datum_cd": "NGVD29",
    "huc_cd": "11020001"
  },
  {
    "agency_cd": "USGS",
    "site_no": "07094500",
    "station_nm": "ARKANSAS RIVER AT PARKDALE, CO.",
    "site_tp_cd": "ST",
    "dec_lat_va": "38.4872189",
    "dec_long_va": "-105.373604",
    "coord_acy_cd": "F",
    "dec_coord_datum_cd": "NAD83",
    "alt_va": " 5714.30",
    "alt_acy_va": " .1",
    "alt_datum_cd": "NAVD88",
    "huc_cd": "11020001"
  },
  {
    "agency_cd": "USGS",
    "site_no": "07096000",
    "station_nm": "ARKANSAS RIVER AT CANON CITY, CO.",
    "site_tp_cd": "ST",
    "dec_lat_va": "38.43388674",
    "dec_long_va": "-105.2572128",
    "coord_acy_cd": "F",
    "dec_coord_datum_cd": "NAD83",
    "alt_va": " 5342.13",
    "alt_acy_va": " 15",
    "alt_datum_cd": "NGVD29",
    "huc_cd": "11020002"
  },
  {
    "agency_cd": "USGS",
    "site_no": "07096250",
    "station_nm": "FOURMILE CREEK BELOW CRIPPLE CREEK NEAR VICTOR, CO",
    "site_tp_cd": "ST",
    "dec_lat_va": "38.66388094",
    "dec_long_va": "-105.228041",
    "coord_acy_cd": "F",
    "dec_coord_datum_cd": "NAD83",
    "alt_va": " 6870",
    "alt_acy_va": " 20",
    "alt_datum_cd": "NGVD29",
    "huc_cd": "11020002"
  },
  {
    "agency_cd": "USGS",
    "site_no": "07097000",
    "station_nm": "ARKANSAS RIVER AT PORTLAND, CO.",
    "site_tp_cd": "ST",
    "dec_lat_va": "38.38833418",
    "dec_long_va": "-105.0160961",
    "coord_acy_cd": "F",
    "dec_coord_datum_cd": "NAD83",
    "alt_va": " 5021.59",
    "alt_acy_va": " 15",
    "alt_datum_cd": "NGVD29",
    "huc_cd": "11020002"
  },
  {
    "agency_cd": "USGS",
    "site_no": "07099050",
    "station_nm": "BEAVER CR ABV UPPER BEAVER CEMETERY NR PENROSE, CO",
    "site_tp_cd": "ST",
    "dec_lat_va": "38.56166228",
    "dec_long_va": "-105.0219257",
    "coord_acy_cd": "F",
    "dec_coord_datum_cd": "NAD83",
    "alt_va": " 6020",
    "alt_acy_va": " 20",
    "alt_datum_cd": "NGVD29",
    "huc_cd": "11020002"
  },
  {
    "agency_cd": "USGS",
    "site_no": "07099060",
    "station_nm": "BEAVER CREEK ABOVE HIGHWAY 115 NEAR PENROSE, CO",
    "site_tp_cd": "ST",
    "dec_lat_va": "38.4891658",
    "dec_long_va": "-104.9974832",
    "coord_acy_cd": "F",
    "dec_coord_datum_cd": "NAD83",
    "alt_va": " 5660.",
    "alt_acy_va": " 10",
    "alt_datum_cd": "NGVD29",
    "huc_cd": "11020002"
  },
  {
    "agency_cd": "USGS",
    "site_no": "07099085",
    "station_nm": "RED CREEK ABOVE SALT CANYON AT FORT CARSON, CO",
    "site_tp_cd": "ST",
    "dec_lat_va": "38.4789722",
    "dec_long_va": "-104.9405556",
    "coord_acy_cd": "B",
    "dec_coord_datum_cd": "NAD83",
    "alt_va": " 5629",
    "alt_acy_va": "4.3",
    "alt_datum_cd": "NAVD88",
    "huc_cd": "11020002"
  },
  {
    "agency_cd": "USGS",
    "site_no": "07099230",
    "station_nm": "TURKEY CREEK AB TELLER RES NEAR STONE CITY, CO.",
    "site_tp_cd": "ST",
    "dec_lat_va": "38.46499989",
    "dec_long_va": "-104.8272009",
    "coord_acy_cd": "F",
    "dec_coord_datum_cd": "NAD83",
    "alt_va": " 5520.00",
    "alt_acy_va": " 15",
    "alt_datum_cd": "NGVD29",
    "huc_cd": "11020002"
  },
  {
    "agency_cd": "USGS",
    "site_no": "07099233",
    "station_nm": "TELLER RESERVOIR NEAR STONE CITY, CO.",
    "site_tp_cd": "LK",
    "dec_lat_va": "38.4425",
    "dec_long_va": "-104.8258333",
    "coord_acy_cd": "F",
    "dec_coord_datum_cd": "NAD83",
    "alt_va": " 5453",
    "alt_acy_va": " 15",
    "alt_datum_cd": "NGVD29",
    "huc_cd": "11020002"
  },
  {
    "agency_cd": "USGS",
    "site_no": "07099238",
    "station_nm": "TELLER RESERVOIR SPILLWAY NEAR STONE CITY, CO",
    "site_tp_cd": "ST",
    "dec_lat_va": "38.43888889",
    "dec_long_va": "-104.8208333",
    "coord_acy_cd": "F",
    "dec_coord_datum_cd": "NAD83",
    "alt_va": " 5480",
    "alt_acy_va": " 10",
    "alt_datum_cd": "NGVD29",
    "huc_cd": "11020002"
  },
  {
    "agency_cd": "USGS",
    "site_no": "07099400",
    "station_nm": "ARKANSAS RIVER ABOVE PUEBLO, CO",
    "site_tp_cd": "ST",
    "dec_lat_va": "38.2716694",
    "dec_long_va": "-104.718033",
    "coord_acy_cd": "F",
    "dec_coord_datum_cd": "NAD83",
    "alt_va": " 4740",
    "alt_acy_va": " 15",
    "alt_datum_cd": "NGVD29",
    "huc_cd": "11020002"
  },
  {
    "agency_cd": "USGS",
    "site_no": "07099969",
    "station_nm": "ARKANSAS R. AT ST CHARLES MESA DIVER. AT PUEBLO,CO",
    "site_tp_cd": "ST",
    "dec_lat_va": "38.25361396",
    "dec_long_va": "-104.6060854",
    "coord_acy_cd": "F",
    "dec_coord_datum_cd": "NAD83",
    "alt_va": " 4653",
    "alt_acy_va": " 15",
    "alt_datum_cd": "NGVD29",
    "huc_cd": "11020002"
  },
  {
    "agency_cd": "USGS",
    "site_no": "07099970",
    "station_nm": "ARKANSAS RIVER AT MOFFAT STREET AT PUEBLO, CO",
    "site_tp_cd": "ST",
    "dec_lat_va": "38.25361396",
    "dec_long_va": "-104.6060854",
    "coord_acy_cd": "F",
    "dec_coord_datum_cd": "NAD83",
    "alt_va": " 4653",
    "alt_acy_va": " 15",
    "alt_datum_cd": "NGVD29",
    "huc_cd": "11020002"
  },
  {
    "agency_cd": "USGS",
    "site_no": "07099973",
    "station_nm": "ARKANSAS RIVER TRIBUTARY ABOVE HWY 227 AT PUEBLO",
    "site_tp_cd": "ST",
    "dec_lat_va": "38.25388889",
    "dec_long_va": "-104.5958333",
    "coord_acy_cd": "S",
    "dec_coord_datum_cd": "NAD83",
    "alt_va": " 4640",
    "alt_acy_va": "  5",
    "alt_datum_cd": "NGVD29",
    "huc_cd": "11020002"
  },
  {
    "agency_cd": "USGS",
    "site_no": "07100300",
    "station_nm": "FOUNTAIN CREEK AT CASCADE, CO",
    "site_tp_cd": "ST",
    "dec_lat_va": "38.8970833",
    "dec_long_va": "-104.9717778",
    "coord_acy_cd": "M",
    "dec_coord_datum_cd": "NAD83",
    "alt_va": " 7372",
    "alt_acy_va": "4.3",
    "alt_datum_cd": "NAVD88",
    "huc_cd": "11020003"
  },
  {
    "agency_cd": "USGS",
    "site_no": "07100750",
    "station_nm": "WALDO CANYON ABV MOUTH NEAR MANITOU SPRINGS, CO",
    "site_tp_cd": "ST",
    "dec_lat_va": "38.8881111",
    "dec_long_va": "-104.9356944",
    "coord_acy_cd": "M",
    "dec_coord_datum_cd": "NAD83",
    "alt_va": " 7391",
    "alt_acy_va": "4.3",
    "alt_datum_cd": "NAVD88",
    "huc_cd": "11020003"
  },
  {
    "agency_cd": "USGS",
    "site_no": "07103100",
    "station_nm": "WILLIAMS CANYON ABV MOUTH NEAR MANITOU SPRINGS, CO",
    "site_tp_cd": "ST",
    "dec_lat_va": "38.88880278",
    "dec_long_va": "-104.918825",
    "coord_acy_cd": "T",
    "dec_coord_datum_cd": "NAD83",
    "alt_va": " 7120",
    "alt_acy_va": " 25",
    "alt_datum_cd": "NAVD88",
    "huc_cd": "11020003"
  },
  {
    "agency_cd": "USGS",
    "site_no": "07103700",
    "station_nm": "FOUNTAIN CREEK NEAR COLORADO SPRINGS, CO.",
    "site_tp_cd": "ST",
    "dec_lat_va": "38.85471357",
    "dec_long_va": "-104.8780314",
    "coord_acy_cd": "F",
    "dec_coord_datum_cd": "NAD83",
    "alt_va": " 6110.00",
    "alt_acy_va": " 15",
    "alt_datum_cd": "NGVD29",
    "huc_cd": "11020003"
  },
  {
    "agency_cd": "USGS",
    "site_no": "07103703",
    "station_nm": "CAMP CREEK AT GARDEN OF THE GODS, CO",
    "site_tp_cd": "ST",
    "dec_lat_va": "38.87693609",
    "dec_long_va": "-104.8727543",
    "coord_acy_cd": "F",
    "dec_coord_datum_cd": "NAD83",
    "alt_va": " 6310",
    "alt_acy_va": " 10",
    "alt_datum_cd": "NGVD29",
    "huc_cd": "11020003"
  },
  {
    "agency_cd": "USGS",
    "site_no": "07103780",
    "station_nm": "MONUMENT C AB N.GATE BLVD AT USAF ACADEMY, CO.",
    "site_tp_cd": "ST",
    "dec_lat_va": "39.03102778",
    "dec_long_va": "-104.8466111",
    "coord_acy_cd": "F",
    "dec_coord_datum_cd": "NAD83",
    "alt_va": " 6640",
    "alt_acy_va": " 15",
    "alt_datum_cd": "NGVD29",
    "huc_cd": "11020003"
  },
  {
    "agency_cd": "USGS",
    "site_no": "07103784",
    "station_nm": "GOAT CAMP CREEK ABV RESERVOIR NO. 4 AT USAFA, CO",
    "site_tp_cd": "ST",
    "dec_lat_va": "39.00888889",
    "dec_long_va": "-104.8981",
    "coord_acy_cd": "F",
    "dec_coord_datum_cd": "NAD83",
    "alt_va": " 7230",
    "alt_acy_va": " 20",
    "alt_datum_cd": "NAVD88",
    "huc_cd": "11020003"
  },
  {
    "agency_cd": "USGS",
    "site_no": "07103791",
    "station_nm": "LEHMAN RUN BLW STADIUM BLVD AT USAFA, CO",
    "site_tp_cd": "ST",
    "dec_lat_va": "39.00007778",
    "dec_long_va": "-104.8378417",
    "coord_acy_cd": "M",
    "dec_coord_datum_cd": "NAD83",
    "alt_va": " 6580",
    "alt_acy_va": " 10",
    "alt_datum_cd": "NAVD88",
    "huc_cd": "11020003"
  },
  {
    "agency_cd": "USGS",
    "site_no": "07103792",
    "station_nm": "RESERVOIR NO. 1 SPILLWAY AT HUSTED RD AT USAFA, CO",
    "site_tp_cd": "ST",
    "dec_lat_va": "39.0012333",
    "dec_long_va": "-104.8340111",
    "coord_acy_cd": "M",
    "dec_coord_datum_cd": "NAD83",
    "alt_va": " 6580",
    "alt_acy_va": " 10",
    "alt_datum_cd": "NAVD88",
    "huc_cd": "11020003"
  },
  {
    "agency_cd": "USGS",
    "site_no": "07103797",
    "station_nm": "WEST MONUMENT CREEK BELOW RAMPART RESERVOIR, CO",
    "site_tp_cd": "ST",
    "dec_lat_va": "38.97499176",
    "dec_long_va": "-104.9555374",
    "coord_acy_cd": "F",
    "dec_coord_datum_cd": "NAD83",
    "alt_va": " 8710",
    "alt_acy_va": " 15",
    "alt_datum_cd": "NGVD29",
    "huc_cd": "11020003"
  },
  {
    "agency_cd": "USGS",
    "site_no": "07103800",
    "station_nm": "WEST MONUMENT CREEK AT U.S. AIR FORCE ACADEMY, CO",
    "site_tp_cd": "ST",
    "dec_lat_va": "38.97054766",
    "dec_long_va": "-104.902758",
    "coord_acy_cd": "F",
    "dec_coord_datum_cd": "NAD83",
    "alt_va": " 7180",
    "alt_acy_va": " 15",
    "alt_datum_cd": "NGVD29",
    "huc_cd": "11020003"
  },
  {
    "agency_cd": "USGS",
    "site_no": "07103960",
    "station_nm": "KETTLE CREEK ABOVE USAF ACADEMY, CO",
    "site_tp_cd": "ST",
    "dec_lat_va": "38.9761111",
    "dec_long_va": "-104.7986111",
    "coord_acy_cd": "5",
    "dec_coord_datum_cd": "NAD83",
    "alt_va": " 6620",
    "alt_acy_va": " 10",
    "alt_datum_cd": "NGVD29",
    "huc_cd": "11020003"
  },
  {
    "agency_cd": "USGS",
    "site_no": "07103965",
    "station_nm": "PINE CREEK ABV BRIARGATE PKWY,ABV COLO SPRINGS, CO",
    "site_tp_cd": "ST",
    "dec_lat_va": "38.96750278",
    "dec_long_va": "-104.7940167",
    "coord_acy_cd": "F",
    "dec_coord_datum_cd": "NAD83",
    "alt_va": " 6590",
    "alt_acy_va": " 10",
    "alt_datum_cd": "NAVD88",
    "huc_cd": "11020003"
  },
  {
    "agency_cd": "USGS",
    "site_no": "07103970",
    "station_nm": "MONUMENT CR ABV WOODMEN RD AT COLORADO SPRINGS, CO",
    "site_tp_cd": "ST",
    "dec_lat_va": "38.9338817",
    "dec_long_va": "-104.8171992",
    "coord_acy_cd": "F",
    "dec_coord_datum_cd": "NAD83",
    "alt_va": " 6270",
    "alt_acy_va": " 10",
    "alt_datum_cd": "NGVD29",
    "huc_cd": "11020003"
  },
  {
    "agency_cd": "USGS",
    "site_no": "07103980",
    "station_nm": "COTTONWOOD CREEK AT WOODMEN RD NR COLO SPRINGS, CO",
    "site_tp_cd": "ST",
    "dec_lat_va": "38.93943809",
    "dec_long_va": "-104.7410863",
    "coord_acy_cd": "F",
    "dec_coord_datum_cd": "NAD83",
    "alt_va": " 6680",
    "alt_acy_va": " 10",
    "alt_datum_cd": "NGVD29",
    "huc_cd": "11020003"
  },
  {
    "agency_cd": "USGS",
    "site_no": "07103987",
    "station_nm": "COTTONWOOD CK AT UNION BLVD, AT COLO SPRINGS, CO",
    "site_tp_cd": "ST",
    "dec_lat_va": "38.9303611",
    "dec_long_va": "-104.77615",
    "coord_acy_cd": "F",
    "dec_coord_datum_cd": "NAD83",
    "alt_va": " 6485",
    "alt_acy_va": " 10",
    "alt_datum_cd": "NAVD88",
    "huc_cd": "11020003"
  },
  {
    "agency_cd": "USGS",
    "site_no": "07103990",
    "station_nm": "COTTONWOOD CREEK AT MOUTH AT PIKEVIEW, CO",
    "site_tp_cd": "ST",
    "dec_lat_va": "38.9272222",
    "dec_long_va": "-104.8141667",
    "coord_acy_cd": "5",
    "dec_coord_datum_cd": "NAD83",
    "alt_va": " 6240",
    "alt_acy_va": " 10",
    "alt_datum_cd": "NGVD29",
    "huc_cd": "11020003"
  },
  {
    "agency_cd": "USGS",
    "site_no": "07104000",
    "station_nm": "MONUMENT CREEK AT PIKEVIEW, CO.",
    "site_tp_cd": "ST",
    "dec_lat_va": "38.91777057",
    "dec_long_va": "-104.8185877",
    "coord_acy_cd": "F",
    "dec_coord_datum_cd": "NAD83",
    "alt_va": " 6203.26",
    "alt_acy_va": " 15",
    "alt_datum_cd": "NGVD29",
    "huc_cd": "11020003"
  },
  {
    "agency_cd": "USGS",
    "site_no": "07104905",
    "station_nm": "MONUMENT CREEK AT BIJOU ST. AT COLO. SPRINGS, CO",
    "site_tp_cd": "ST",
    "dec_lat_va": "38.83721474",
    "dec_long_va": "-104.8294192",
    "coord_acy_cd": "F",
    "dec_coord_datum_cd": "NAD83",
    "alt_va": " 5980",
    "alt_acy_va": " 10",
    "alt_datum_cd": "NGVD29",
    "huc_cd": "11020003"
  },
  {
    "agency_cd": "USGS",
    "site_no": "07105000",
    "station_nm": "BEAR CREEK NEAR COLORADO SPRINGS, CO",
    "site_tp_cd": "ST",
    "dec_lat_va": "38.82249078",
    "dec_long_va": "-104.888586",
    "coord_acy_cd": "F",
    "dec_coord_datum_cd": "NAD83",
    "alt_va": " 6520",
    "alt_acy_va": " 20",
    "alt_datum_cd": "NGVD29",
    "huc_cd": "11020003"
  },
  {
    "agency_cd": "USGS",
    "site_no": "07105490",
    "station_nm": "CHEYENNE CREEK AT EVANS AVE AT COLORADO SPRINGS,CO",
    "site_tp_cd": "ST",
    "dec_lat_va": "38.79054685",
    "dec_long_va": "-104.8641404",
    "coord_acy_cd": "F",
    "dec_coord_datum_cd": "NAD83",
    "alt_va": " 6280",
    "alt_acy_va": " 10",
    "alt_datum_cd": "NGVD29",
    "huc_cd": "11020003"
  },
  {
    "agency_cd": "USGS",
    "site_no": "07105500",
    "station_nm": "FOUNTAIN CREEK AT COLORADO SPRINGS, CO",
    "site_tp_cd": "ST",
    "dec_lat_va": "38.81638158",
    "dec_long_va": "-104.8227519",
    "coord_acy_cd": "F",
    "dec_coord_datum_cd": "NAD83",
    "alt_va": " 5900",
    "alt_acy_va": " 15",
    "alt_datum_cd": "NGVD29",
    "huc_cd": "11020003"
  },
  {
    "agency_cd": "USGS",
    "site_no": "07105530",
    "station_nm": "FOUNTAIN CR BLW JANITELL RD BLW COLO. SPRINGS, CO",
    "site_tp_cd": "ST",
    "dec_lat_va": "38.8030491",
    "dec_long_va": "-104.7958069",
    "coord_acy_cd": "F",
    "dec_coord_datum_cd": "NAD83",
    "alt_va": " 5840",
    "alt_acy_va": " 15",
    "alt_datum_cd": "NGVD29",
    "huc_cd": "11020003"
  },
  {
    "agency_cd": "USGS",
    "site_no": "07105600",
    "station_nm": "SAND CREEK ABOVE MOUTH AT COLORADO SPRINGS, CO",
    "site_tp_cd": "ST",
    "dec_lat_va": "38.78832768",
    "dec_long_va": "-104.773862",
    "coord_acy_cd": "S",
    "dec_coord_datum_cd": "NAD83",
    "alt_va": " 5837",
    "alt_acy_va": " 15",
    "alt_datum_cd": "NGVD29",
    "huc_cd": "11020003"
  },
  {
    "agency_cd": "USGS",
    "site_no": "07105780",
    "station_nm": "B DITCH DRAIN NEAR SECURITY, CO.",
    "site_tp_cd": "ST-DCH",
    "dec_lat_va": "38.752495",
    "dec_long_va": "-104.7624723",
    "coord_acy_cd": "F",
    "dec_coord_datum_cd": "NAD83",
    "alt_va": " 5724.00",
    "alt_acy_va": " 15",
    "alt_datum_cd": "NGVD29",
    "huc_cd": "11020003"
  },
  {
    "agency_cd": "USGS",
    "site_no": "07105800",
    "station_nm": "FOUNTAIN CREEK AT SECURITY, CO",
    "site_tp_cd": "ST",
    "dec_lat_va": "38.7294404",
    "dec_long_va": "-104.7338611",
    "coord_acy_cd": "F",
    "dec_coord_datum_cd": "NAD83",
    "alt_va": " 5640",
    "alt_acy_va": " 15",
    "alt_datum_cd": "NGVD29",
    "huc_cd": "11020003"
  },
  {
    "agency_cd": "USGS",
    "site_no": "07105815",
    "station_nm": "CLOVER DITCH DRAIN AT QUINN ST NR WIDEFIELD, CO",
    "site_tp_cd": "ST-DCH",
    "dec_lat_va": "38.7297222",
    "dec_long_va": "-104.7676389",
    "coord_acy_cd": "1",
    "dec_coord_datum_cd": "NAD83",
    "alt_va": " 5745",
    "alt_acy_va": "4.3",
    "alt_datum_cd": "NAVD88",
    "huc_cd": "11020003"
  },
  {
    "agency_cd": "USGS",
    "site_no": "07105820",
    "station_nm": "CLOVER DITCH DRAIN NEAR WIDEFIELD, CO.",
    "site_tp_cd": "ST-DCH",
    "dec_lat_va": "38.71860726",
    "dec_long_va": "-104.729139",
    "coord_acy_cd": "F",
    "dec_coord_datum_cd": "NAD83",
    "alt_va": " 5620.00",
    "alt_acy_va": " 15",
    "alt_datum_cd": "NGVD29",
    "huc_cd": "11020003"
  },
  {
    "agency_cd": "USGS",
    "site_no": "07105900",
    "station_nm": "JIMMY CAMP CREEK AT FOUNTAIN, CO.",
    "site_tp_cd": "ST",
    "dec_lat_va": "38.6844413",
    "dec_long_va": "-104.688583",
    "coord_acy_cd": "F",
    "dec_coord_datum_cd": "NAD83",
    "alt_va": " 5530.00",
    "alt_acy_va": " 15",
    "alt_datum_cd": "NGVD29",
    "huc_cd": "11020003"
  },
  {
    "agency_cd": "USGS",
    "site_no": "07105940",
    "station_nm": "LITTLE FOUNTAIN CREEK NEAR FOUNTAIN, CO",
    "site_tp_cd": "ST",
    "dec_lat_va": "38.64265",
    "dec_long_va": "-104.7483833",
    "coord_acy_cd": "5",
    "dec_coord_datum_cd": "NAD83",
    "alt_va": " 5566",
    "alt_acy_va": "4.3",
    "alt_datum_cd": "NAVD88",
    "huc_cd": "11020003"
  },
  {
    "agency_cd": "USGS",
    "site_no": "07106000",
    "station_nm": "FOUNTAIN CREEK NEAR FOUNTAIN, CO.",
    "site_tp_cd": "ST",
    "dec_lat_va": "38.6016647",
    "dec_long_va": "-104.6702503",
    "coord_acy_cd": "F",
    "dec_coord_datum_cd": "NAD83",
    "alt_va": " 5355",
    "alt_acy_va": " 15",
    "alt_datum_cd": "NGVD29",
    "huc_cd": "11020003"
  },
  {
    "agency_cd": "USGS",
    "site_no": "07106300",
    "station_nm": "FOUNTAIN CREEK NEAR PINON, CO",
    "site_tp_cd": "ST",
    "dec_lat_va": "38.42944444",
    "dec_long_va": "-104.5980556",
    "coord_acy_cd": "F",
    "dec_coord_datum_cd": "NAD83",
    "alt_va": " 4990",
    "alt_acy_va": " 15",
    "alt_datum_cd": "NGVD29",
    "huc_cd": "11020003"
  },
  {
    "agency_cd": "USGS",
    "site_no": "07106500",
    "station_nm": "FOUNTAIN CREEK AT PUEBLO, CO.",
    "site_tp_cd": "ST",
    "dec_lat_va": "38.2877801",
    "dec_long_va": "-104.6010849",
    "coord_acy_cd": "F",
    "dec_coord_datum_cd": "NAD83",
    "alt_va": " 4705",
    "alt_acy_va": " 15",
    "alt_datum_cd": "NGVD29",
    "huc_cd": "11020003"
  },
  {
    "agency_cd": "USGS",
    "site_no": "07108900",
    "station_nm": "ST. CHARLES RIVER AT VINELAND, CO.",
    "site_tp_cd": "ST",
    "dec_lat_va": "38.24555835",
    "dec_long_va": "-104.4863597",
    "coord_acy_cd": "F",
    "dec_coord_datum_cd": "NAD83",
    "alt_va": " 4581.58",
    "alt_acy_va": " 15",
    "alt_datum_cd": "NGVD29",
    "huc_cd": "11020002"
  },
  {
    "agency_cd": "USGS",
    "site_no": "07109500",
    "station_nm": "ARKANSAS RIVER NEAR AVONDALE, CO.",
    "site_tp_cd": "ST",
    "dec_lat_va": "38.24805799",
    "dec_long_va": "-104.3991356",
    "coord_acy_cd": "F",
    "dec_coord_datum_cd": "NAD83",
    "alt_va": " 4509.53",
    "alt_acy_va": " 15",
    "alt_datum_cd": "NGVD29",
    "huc_cd": "11020002"
  },
  {
    "agency_cd": "USGS",
    "site_no": "07116500",
    "station_nm": "HUERFANO RIVER NEAR BOONE, CO.",
    "site_tp_cd": "ST",
    "dec_lat_va": "38.2250024",
    "dec_long_va": "-104.2607996",
    "coord_acy_cd": "F",
    "dec_coord_datum_cd": "NAD83",
    "alt_va": " 4443.74",
    "alt_acy_va": " 15",
    "alt_datum_cd": "NGVD29",
    "huc_cd": "11020006"
  },
  {
    "agency_cd": "USGS",
    "site_no": "07119500",
    "station_nm": "APISHAPA RIVER NEAR FOWLER, CO",
    "site_tp_cd": "ST",
    "dec_lat_va": "38.1085",
    "dec_long_va": "-103.9676111",
    "coord_acy_cd": "S",
    "dec_coord_datum_cd": "NAD83",
    "alt_va": " 4290",
    "alt_acy_va": "  5",
    "alt_datum_cd": "NGVD29",
    "huc_cd": "11020007"
  },
  {
    "agency_cd": "USGS",
    "site_no": "07119700",
    "station_nm": "ARKANSAS RIVER AT CATLIN DAM, NEAR FOWLER, CO.",
    "site_tp_cd": "ST",
    "dec_lat_va": "38.12583934",
    "dec_long_va": "-103.9119006",
    "coord_acy_cd": "F",
    "dec_coord_datum_cd": "NAD83",
    "alt_va": " 4245.92",
    "alt_acy_va": ".01",
    "alt_datum_cd": "NGVD29",
    "huc_cd": "11020005"
  },
  {
    "agency_cd": "USGS",
    "site_no": "07120500",
    "station_nm": "ARKANSAS RIVER NEAR ROCKY FORD, CO.",
    "site_tp_cd": "ST",
    "dec_lat_va": "38.06528559",
    "dec_long_va": "-103.6860593",
    "coord_acy_cd": "R",
    "dec_coord_datum_cd": "NAD83",
    "alt_va": " 4150",
    "alt_acy_va": " 10",
    "alt_datum_cd": "NGVD29",
    "huc_cd": "11020005"
  },
  {
    "agency_cd": "USGS",
    "site_no": "07121500",
    "station_nm": "TIMPAS CREEK AT MOUTH NEAR SWINK, CO.",
    "site_tp_cd": "ST",
    "dec_lat_va": "38.0030644",
    "dec_long_va": "-103.6560588",
    "coord_acy_cd": "F",
    "dec_coord_datum_cd": "NAD83",
    "alt_va": " 4120.00",
    "alt_acy_va": " 15",
    "alt_datum_cd": "NGVD29",
    "huc_cd": "11020005"
  },
  {
    "agency_cd": "USGS",
    "site_no": "07124000",
    "station_nm": "ARKANSAS RIVER AT LAS ANIMAS, CO.",
    "site_tp_cd": "ST",
    "dec_lat_va": "38.0808399",
    "dec_long_va": "-103.2196523",
    "coord_acy_cd": "F",
    "dec_coord_datum_cd": "NAD83",
    "alt_va": " 3883.97",
    "alt_acy_va": " 15",
    "alt_datum_cd": "NGVD29",
    "huc_cd": "11020009"
  },
  {
    "agency_cd": "USGS",
    "site_no": "07124200",
    "station_nm": "PURGATOIRE RIVER AT MADRID, CO.",
    "site_tp_cd": "ST",
    "dec_lat_va": "37.12946459",
    "dec_long_va": "-104.6399888",
    "coord_acy_cd": "F",
    "dec_coord_datum_cd": "NAD83",
    "alt_va": " 6261.61",
    "alt_acy_va": ".01",
    "alt_datum_cd": "NGVD29",
    "huc_cd": "11020010"
  },
  {
    "agency_cd": "USGS",
    "site_no": "07124400",
    "station_nm": "TRINIDAD LAKE NEAR TRINIDAD, CO.",
    "site_tp_cd": "LK",
    "dec_lat_va": "37.14113076",
    "dec_long_va": "-104.5519312",
    "coord_acy_cd": "F",
    "dec_coord_datum_cd": "NAD83",
    "alt_va": " 6073.64",
    "alt_acy_va": ".01",
    "alt_datum_cd": "NGVD29",
    "huc_cd": "11020010"
  },
  {
    "agency_cd": "USGS",
    "site_no": "07124410",
    "station_nm": "PURGATOIRE RIVER BELOW TRINIDAD LAKE, CO.",
    "site_tp_cd": "ST",
    "dec_lat_va": "37.14390846",
    "dec_long_va": "-104.5477644",
    "coord_acy_cd": "F",
    "dec_coord_datum_cd": "NAD83",
    "alt_va": " 6073.64",
    "alt_acy_va": ".01",
    "alt_datum_cd": "NGVD29",
    "huc_cd": "11020010"
  },
  {
    "agency_cd": "USGS",
    "site_no": "07126200",
    "station_nm": "VAN BREMER ARROYO NEAR MODEL, CO",
    "site_tp_cd": "ST",
    "dec_lat_va": "37.34557255",
    "dec_long_va": "-103.9580186",
    "coord_acy_cd": "F",
    "dec_coord_datum_cd": "NAD83",
    "alt_va": " 4960",
    "alt_acy_va": " 10",
    "alt_datum_cd": "NGVD29",
    "huc_cd": "11020010"
  },
  {
    "agency_cd": "USGS",
    "site_no": "07126300",
    "station_nm": "PURGATOIRE RIVER NEAR THATCHER, CO.",
    "site_tp_cd": "ST",
    "dec_lat_va": "37.3564059",
    "dec_long_va": "-103.9002383",
    "coord_acy_cd": "F",
    "dec_coord_datum_cd": "NAD83",
    "alt_va": " 4790",
    "alt_acy_va": " 10",
    "alt_datum_cd": "NGVD29",
    "huc_cd": "11020010"
  },
  {
    "agency_cd": "USGS",
    "site_no": "07126325",
    "station_nm": "TAYLOR ARROYO BL ROCK CROSSING, NR THATCHER, CO.",
    "site_tp_cd": "ST",
    "dec_lat_va": "37.42418269",
    "dec_long_va": "-103.9202382",
    "coord_acy_cd": "F",
    "dec_coord_datum_cd": "NAD83",
    "alt_va": " 4982.00",
    "alt_acy_va": " 10",
    "alt_datum_cd": "NGVD29",
    "huc_cd": "11020010"
  },
  {
    "agency_cd": "USGS",
    "site_no": "07126390",
    "station_nm": "LOCKWOOD CANYON CREEK NEAR THATCHER, CO",
    "site_tp_cd": "ST",
    "dec_lat_va": "37.49279316",
    "dec_long_va": "-103.8280114",
    "coord_acy_cd": "F",
    "dec_coord_datum_cd": "NAD83",
    "alt_va": " 4785",
    "alt_acy_va": " 11",
    "alt_datum_cd": "NGVD29",
    "huc_cd": "11020010"
  },
  {
    "agency_cd": "USGS",
    "site_no": "07126415",
    "station_nm": "RED ROCK CANYON CREEK AT MOUTH NR THATCHER, CO.",
    "site_tp_cd": "ST",
    "dec_lat_va": "37.51529314",
    "dec_long_va": "-103.7255071",
    "coord_acy_cd": "F",
    "dec_coord_datum_cd": "NAD83",
    "alt_va": " 4510",
    "alt_acy_va": " 10",
    "alt_datum_cd": "NGVD29",
    "huc_cd": "11020010"
  },
  {
    "agency_cd": "USGS",
    "site_no": "07126480",
    "station_nm": "BENT CANYON CREEK AT MOUTH NEAR TIMPAS, CO",
    "site_tp_cd": "ST",
    "dec_lat_va": "37.58918109",
    "dec_long_va": "-103.6482815",
    "coord_acy_cd": "F",
    "dec_coord_datum_cd": "NAD83",
    "alt_va": " 4402",
    "alt_acy_va": " 10",
    "alt_datum_cd": "NGVD29",
    "huc_cd": "11020010"
  },
  {
    "agency_cd": "USGS",
    "site_no": "07126485",
    "station_nm": "PURGATOIRE RIVER AT ROCK CROSSING NR TIMPAS, CO.",
    "site_tp_cd": "ST",
    "dec_lat_va": "37.6183474",
    "dec_long_va": "-103.593557",
    "coord_acy_cd": "R",
    "dec_coord_datum_cd": "NAD83",
    "alt_va": " 4350",
    "alt_acy_va": " 10",
    "alt_datum_cd": "NGVD29",
    "huc_cd": "11020010"
  },
  {
    "agency_cd": "USGS",
    "site_no": "07128500",
    "station_nm": "PURGATOIRE RIVER NEAR LAS ANIMAS, CO",
    "site_tp_cd": "ST",
    "dec_lat_va": "38.0342222",
    "dec_long_va": "-103.2014167",
    "coord_acy_cd": "F",
    "dec_coord_datum_cd": "NAD83",
    "alt_va": " 3878.04",
    "alt_acy_va": " 10",
    "alt_datum_cd": "NGVD29",
    "huc_cd": "11020010"
  },
  {
    "agency_cd": "USGS",
    "site_no": "07130000",
    "station_nm": "JOHN MARTIN RESERVOIR AT CADDOA, CO",
    "site_tp_cd": "LK",
    "dec_lat_va": "38.06806298",
    "dec_long_va": "-102.9374229",
    "coord_acy_cd": "F",
    "dec_coord_datum_cd": "NAD83",
    "alt_va": " 3760.00",
    "alt_acy_va": "  5",
    "alt_datum_cd": "NGVD29",
    "huc_cd": "11020009"
  },
  {
    "agency_cd": "USGS",
    "site_no": "07130500",
    "station_nm": "ARKANSAS RIVER BELOW JOHN MARTIN RESERVOIR, CO.",
    "site_tp_cd": "ST",
    "dec_lat_va": "38.06639635",
    "dec_long_va": "-102.9324228",
    "coord_acy_cd": "F",
    "dec_coord_datum_cd": "NAD83",
    "alt_va": " 3737.40",
    "alt_acy_va": " 15",
    "alt_datum_cd": "NGVD29",
    "huc_cd": "11020009"
  },
  {
    "agency_cd": "USGS",
    "site_no": "07133000",
    "station_nm": "ARKANSAS RIVER AT LAMAR, CO",
    "site_tp_cd": "ST",
    "dec_lat_va": "38.10579167",
    "dec_long_va": "-102.6182056",
    "coord_acy_cd": "5",
    "dec_coord_datum_cd": "NAD83",
    "alt_va": " 3597.39",
    "alt_acy_va": " 15",
    "alt_datum_cd": "NGVD29",
    "huc_cd": "11020009"
  },
  {
    "agency_cd": "USGS",
    "site_no": "07134100",
    "station_nm": "BIG SANDY CREEK NEAR LAMAR, CO.",
    "site_tp_cd": "ST",
    "dec_lat_va": "38.11417565",
    "dec_long_va": "-102.4838023",
    "coord_acy_cd": "F",
    "dec_coord_datum_cd": "NAD83",
    "alt_va": " 3545.00",
    "alt_acy_va": " 20",
    "alt_datum_cd": "NGVD29",
    "huc_cd": "11020011"
  },
  {
    "agency_cd": "USGS",
    "site_no": "07134180",
    "station_nm": "ARKANSAS RIVER NEAR GRANADA, CO.",
    "site_tp_cd": "ST",
    "dec_lat_va": "38.0955649",
    "dec_long_va": "-102.3107453",
    "coord_acy_cd": "F",
    "dec_coord_datum_cd": "NAD83",
    "alt_va": " 3480.00",
    "alt_acy_va": " 20",
    "alt_datum_cd": "NGVD29",
    "huc_cd": "11020009"
  },
  {
    "agency_cd": "USGS",
    "site_no": "07134990",
    "station_nm": "WILD HORSE CREEK ABOVE HOLLY, CO",
    "site_tp_cd": "ST",
    "dec_lat_va": "38.05702778",
    "dec_long_va": "-102.1384722",
    "coord_acy_cd": "5",
    "dec_coord_datum_cd": "NAD83",
    "alt_va": " 3405",
    "alt_acy_va": " 10",
    "alt_datum_cd": "NGVD29",
    "huc_cd": "11020009"
  },
  {
    "agency_cd": "USGS",
    "site_no": "08220000",
    "station_nm": "RIO GRANDE NEAR DEL NORTE, CO",
    "site_tp_cd": "ST",
    "dec_lat_va": "37.6886111",
    "dec_long_va": "-106.4598611",
    "coord_acy_cd": "S",
    "dec_coord_datum_cd": "NAD83",
    "alt_va": " 7980.25",
    "alt_acy_va": "  2",
    "alt_datum_cd": "NGVD29",
    "huc_cd": "13010001"
  },
  {
    "agency_cd": "USGS",
    "site_no": "08227000",
    "station_nm": "SAGUACHE CREEK NEAR SAGUACHE, CO",
    "site_tp_cd": "ST",
    "dec_lat_va": "38.16333294",
    "dec_long_va": "-106.290583",
    "coord_acy_cd": "F",
    "dec_coord_datum_cd": "NAD83",
    "alt_va": " 8030",
    "alt_acy_va": " 15",
    "alt_datum_cd": "NGVD29",
    "huc_cd": "13010004"
  },
  {
    "agency_cd": "USGS",
    "site_no": "08251500",
    "station_nm": "RIO GRANDE NEAR LOBATOS, CO",
    "site_tp_cd": "ST",
    "dec_lat_va": "37.0786111",
    "dec_long_va": "-105.7569444",
    "coord_acy_cd": "F",
    "dec_coord_datum_cd": "NAD83",
    "alt_va": " 7427.63",
    "alt_acy_va": " 15",
    "alt_datum_cd": "NGVD29",
    "huc_cd": "13010002"
  },
  {
    "agency_cd": "USGS",
    "site_no": "09010500",
    "station_nm": "COLORADO RIVER BELOW BAKER GULCH NR GRAND LAKE, CO",
    "site_tp_cd": "ST",
    "dec_lat_va": "40.32581784",
    "dec_long_va": "-105.8566791",
    "coord_acy_cd": "S",
    "dec_coord_datum_cd": "NAD83",
    "alt_va": " 8750",
    "alt_acy_va": " 10",
    "alt_datum_cd": "NGVD29",
    "huc_cd": "14010001"
  },
  {
    "agency_cd": "USGS",
    "site_no": "09014050",
    "station_nm": "GRAND LAKE OUTLET BLW CHIPMUNK LN AT GRAND LK, CO",
    "site_tp_cd": "ST",
    "dec_lat_va": "40.2461111",
    "dec_long_va": "-105.8288333",
    "coord_acy_cd": "5",
    "dec_coord_datum_cd": "NAD83",
    "alt_va": " 8365",
    "alt_acy_va": " 15",
    "alt_datum_cd": "NGVD29",
    "huc_cd": "14010001"
  },
  {
    "agency_cd": "USGS",
    "site_no": "09015000",
    "station_nm": "COLORADO RIVER BL SHADOW MOUNTAIN RESERVOIR, CO.",
    "site_tp_cd": "ST",
    "dec_lat_va": "40.20519444",
    "dec_long_va": "-105.8375611",
    "coord_acy_cd": "S",
    "dec_coord_datum_cd": "NAD83",
    "alt_va": " 8332",
    "alt_acy_va": "1.6",
    "alt_datum_cd": "NAVD88",
    "huc_cd": "14010001"
  },
  {
    "agency_cd": "USGS",
    "site_no": "09019000",
    "station_nm": "COLORADO RIVER BELOW LAKE GRANBY, CO.",
    "site_tp_cd": "ST",
    "dec_lat_va": "40.1441524",
    "dec_long_va": "-105.8672348",
    "coord_acy_cd": "F",
    "dec_coord_datum_cd": "NAD83",
    "alt_va": " 8055",
    "alt_acy_va": "1.6",
    "alt_datum_cd": "NAVD88",
    "huc_cd": "14010001"
  },
  {
    "agency_cd": "USGS",
    "site_no": "09019500",
    "station_nm": "COLORADO RIVER NEAR GRANBY, CO",
    "site_tp_cd": "ST",
    "dec_lat_va": "40.12081915",
    "dec_long_va": "-105.9005694",
    "coord_acy_cd": "F",
    "dec_coord_datum_cd": "NAD83",
    "alt_va": " 7960",
    "alt_acy_va": " 15",
    "alt_datum_cd": "NGVD29",
    "huc_cd": "14010001"
  },
  {
    "agency_cd": "USGS",
    "site_no": "09021000",
    "station_nm": "WILLOW CREEK BELOW WILLOW CREEK RESERVOIR, CO.",
    "site_tp_cd": "ST",
    "dec_lat_va": "40.14581899",
    "dec_long_va": "-105.9400156",
    "coord_acy_cd": "F",
    "dec_coord_datum_cd": "NAD83",
    "alt_va": " 8023.64",
    "alt_acy_va": " 15",
    "alt_datum_cd": "NGVD29",
    "huc_cd": "14010001"
  },
  {
    "agency_cd": "USGS",
    "site_no": "09022000",
    "station_nm": "FRASER RIVER AT UPPER STA, NEAR WINTER PARK, CO.",
    "site_tp_cd": "ST",
    "dec_lat_va": "39.8458204",
    "dec_long_va": "-105.7519507",
    "coord_acy_cd": "S",
    "dec_coord_datum_cd": "NAD83",
    "alt_va": " 9520.00",
    "alt_acy_va": " 20",
    "alt_datum_cd": "NGVD29",
    "huc_cd": "14010001"
  },
  {
    "agency_cd": "USGS",
    "site_no": "09024000",
    "station_nm": "FRASER RIVER AT WINTER PARK, CO.",
    "site_tp_cd": "ST",
    "dec_lat_va": "39.89998695",
    "dec_long_va": "-105.7766741",
    "coord_acy_cd": "F",
    "dec_coord_datum_cd": "NAD83",
    "alt_va": " 8906.23",
    "alt_acy_va": " 15",
    "alt_datum_cd": "NGVD29",
    "huc_cd": "14010001"
  },
  {
    "agency_cd": "USGS",
    "site_no": "09025000",
    "station_nm": "VASQUEZ CREEK AT WINTER PARK, CO",
    "site_tp_cd": "ST",
    "dec_lat_va": "39.92026468",
    "dec_long_va": "-105.7852857",
    "coord_acy_cd": "F",
    "dec_coord_datum_cd": "NAD83",
    "alt_va": " 8768.48",
    "alt_acy_va": "  2",
    "alt_datum_cd": "NGVD29",
    "huc_cd": "14010001"
  },
  {
    "agency_cd": "USGS",
    "site_no": "09025300",
    "station_nm": "ELK CREEK AT UPPER STATION, NEAR FRASER, CO",
    "site_tp_cd": "ST",
    "dec_lat_va": "39.8894312",
    "dec_long_va": "-105.8325098",
    "coord_acy_cd": "S",
    "dec_coord_datum_cd": "NAD83",
    "alt_va": " 9400",
    "alt_acy_va": " 10",
    "alt_datum_cd": "NGVD29",
    "huc_cd": "14010001"
  },
  {
    "agency_cd": "USGS",
    "site_no": "09026500",
    "station_nm": "ST. LOUIS CREEK NEAR FRASER, CO.",
    "site_tp_cd": "ST",
    "dec_lat_va": "39.90998657",
    "dec_long_va": "-105.8783451",
    "coord_acy_cd": "F",
    "dec_coord_datum_cd": "NAD83",
    "alt_va": " 8980.17",
    "alt_acy_va": " 15",
    "alt_datum_cd": "NGVD29",
    "huc_cd": "14010001"
  },
  {
    "agency_cd": "USGS",
    "site_no": "09027100",
    "station_nm": "FRASER RIVER AT TABERNASH, CO",
    "site_tp_cd": "ST",
    "dec_lat_va": "39.9903333",
    "dec_long_va": "-105.8297778",
    "coord_acy_cd": "5",
    "dec_coord_datum_cd": "NAD83",
    "alt_va": " 8350",
    "alt_acy_va": " 20",
    "alt_datum_cd": "NGVD29",
    "huc_cd": "14010001"
  },
  {
    "agency_cd": "USGS",
    "site_no": "09032000",
    "station_nm": "RANCH CREEK NEAR FRASER, CO.",
    "site_tp_cd": "ST",
    "dec_lat_va": "39.94998694",
    "dec_long_va": "-105.7655627",
    "coord_acy_cd": "M",
    "dec_coord_datum_cd": "NAD83",
    "alt_va": " 8660",
    "alt_acy_va": " 10",
    "alt_datum_cd": "NGVD29",
    "huc_cd": "14010001"
  },
  {
    "agency_cd": "USGS",
    "site_no": "09032050",
    "station_nm": "LITTLE CABIN CREEK NEAR TABERNASH, CO",
    "site_tp_cd": "ST",
    "dec_lat_va": "39.97454444",
    "dec_long_va": "-105.7395361",
    "coord_acy_cd": "M",
    "dec_coord_datum_cd": "NAD83",
    "alt_va": " 9562",
    "alt_acy_va": "1.6",
    "alt_datum_cd": "NAVD88",
    "huc_cd": "14010001"
  },
  {
    "agency_cd": "USGS",
    "site_no": "09032100",
    "station_nm": "CABIN CREEK NEAR FRASER, CO.",
    "site_tp_cd": "ST",
    "dec_lat_va": "39.9858203",
    "dec_long_va": "-105.7450064",
    "coord_acy_cd": "M",
    "dec_coord_datum_cd": "NAD83",
    "alt_va": " 9560.00",
    "alt_acy_va": " 10",
    "alt_datum_cd": "NGVD29",
    "huc_cd": "14010001"
  },
  {
    "agency_cd": "USGS",
    "site_no": "09032200",
    "station_nm": "HAMILTON CREEK NEAR TABERNASH, CO",
    "site_tp_cd": "ST",
    "dec_lat_va": "39.99727778",
    "dec_long_va": "-105.7468056",
    "coord_acy_cd": "M",
    "dec_coord_datum_cd": "NAD83",
    "alt_va": " 9581",
    "alt_acy_va": "1.6",
    "alt_datum_cd": "NAVD88",
    "huc_cd": "14010001"
  },
  {
    "agency_cd": "USGS",
    "site_no": "09032300",
    "station_nm": "HURD CREEK NEAR TABERNASH, CO",
    "site_tp_cd": "ST",
    "dec_lat_va": "40.01325",
    "dec_long_va": "-105.7616944",
    "coord_acy_cd": "M",
    "dec_coord_datum_cd": "NAD83",
    "alt_va": " 9649",
    "alt_acy_va": "1.6",
    "alt_datum_cd": "NAVD88",
    "huc_cd": "14010001"
  },
  {
    "agency_cd": "USGS",
    "site_no": "09032400",
    "station_nm": "TRAIL CREEK NEAR TABERNASH, CO",
    "site_tp_cd": "ST",
    "dec_lat_va": "40.02841667",
    "dec_long_va": "-105.7806389",
    "coord_acy_cd": "M",
    "dec_coord_datum_cd": "NAD83",
    "alt_va": " 9558",
    "alt_acy_va": "1.6",
    "alt_datum_cd": "NAVD88",
    "huc_cd": "14010001"
  },
  {
    "agency_cd": "USGS",
    "site_no": "09032990",
    "station_nm": "MEADOW CREEK BLW MEADOW CREEK RES NR TABERNASH, CO",
    "site_tp_cd": "ST",
    "dec_lat_va": "40.05202778",
    "dec_long_va": "-105.7541667",
    "coord_acy_cd": "M",
    "dec_coord_datum_cd": "NAD83",
    "alt_va": " 9900",
    "alt_acy_va": "1.6",
    "alt_datum_cd": "NAVD88",
    "huc_cd": "14010001"
  },
  {
    "agency_cd": "USGS",
    "site_no": "09033010",
    "station_nm": "MEADOW CREEK DIVERSION NEAR TABERNASH, CO",
    "site_tp_cd": "ST",
    "dec_lat_va": "40.0502861",
    "dec_long_va": "-105.7797056",
    "coord_acy_cd": "M",
    "dec_coord_datum_cd": "NAD83",
    "alt_va": " 9754",
    "alt_acy_va": "1.6",
    "alt_datum_cd": "NAVD88",
    "huc_cd": "14010001"
  },
  {
    "agency_cd": "USGS",
    "site_no": "09033100",
    "station_nm": "RANCH CREEK BLW MEADOW CR NR TABERNASH, CO",
    "site_tp_cd": "ST",
    "dec_lat_va": "39.99900556",
    "dec_long_va": "-105.8280944",
    "coord_acy_cd": "S",
    "dec_coord_datum_cd": "NAD83",
    "alt_va": " 8350",
    "alt_acy_va": " 10",
    "alt_datum_cd": "NGVD29",
    "huc_cd": "14010001"
  },
  {
    "agency_cd": "USGS",
    "site_no": "09033300",
    "station_nm": "FRASER RIVER BLW CROOKED CR AT TABERNASH CO",
    "site_tp_cd": "ST",
    "dec_lat_va": "40.00689167",
    "dec_long_va": "-105.8482722",
    "coord_acy_cd": "M",
    "dec_coord_datum_cd": "NAD83",
    "alt_va": " 8274",
    "alt_acy_va": "1.6",
    "alt_datum_cd": "NAVD88",
    "huc_cd": "14010001"
  },
  {
    "agency_cd": "USGS",
    "site_no": "09034250",
    "station_nm": "COLORADO RIVER AT WINDY GAP, NEAR GRANBY, CO.",
    "site_tp_cd": "ST",
    "dec_lat_va": "40.108319",
    "dec_long_va": "-106.0041847",
    "coord_acy_cd": "F",
    "dec_coord_datum_cd": "NAD83",
    "alt_va": " 7790.00",
    "alt_acy_va": " 15",
    "alt_datum_cd": "NGVD29",
    "huc_cd": "14010001"
  },
  {
    "agency_cd": "USGS",
    "site_no": "09034900",
    "station_nm": "BOBTAIL CREEK NEAR JONES PASS, CO",
    "site_tp_cd": "ST",
    "dec_lat_va": "39.76026447",
    "dec_long_va": "-105.9064014",
    "coord_acy_cd": "F",
    "dec_coord_datum_cd": "NAD83",
    "alt_va": " 10430",
    "alt_acy_va": " 15",
    "alt_datum_cd": "NGVD29",
    "huc_cd": "14010001"
  },
  {
    "agency_cd": "USGS",
    "site_no": "09035500",
    "station_nm": "WILLIAMS FORK BELOW STEELMAN CREEK, CO.",
    "site_tp_cd": "ST",
    "dec_lat_va": "39.77887549",
    "dec_long_va": "-105.9283469",
    "coord_acy_cd": "F",
    "dec_coord_datum_cd": "NAD83",
    "alt_va": " 9800.00",
    "alt_acy_va": " 15",
    "alt_datum_cd": "NGVD29",
    "huc_cd": "14010001"
  },
  {
    "agency_cd": "USGS",
    "site_no": "09035700",
    "station_nm": "WILLIAMS FORK ABOVE DARLING CREEK, NEAR LEAL, CO",
    "site_tp_cd": "ST",
    "dec_lat_va": "39.79719444",
    "dec_long_va": "-106.0256389",
    "coord_acy_cd": "S",
    "dec_coord_datum_cd": "NAD83",
    "alt_va": " 8940",
    "alt_acy_va": " 10",
    "alt_datum_cd": "NGVD29",
    "huc_cd": "14010001"
  },
  {
    "agency_cd": "USGS",
    "site_no": "09035900",
    "station_nm": "SOUTH FORK OF WILLIAMS FORK NEAR LEAL, CO",
    "site_tp_cd": "ST",
    "dec_lat_va": "39.79581958",
    "dec_long_va": "-106.0305734",
    "coord_acy_cd": "S",
    "dec_coord_datum_cd": "NAD83",
    "alt_va": " 8950",
    "alt_acy_va": " 20",
    "alt_datum_cd": "NGVD29",
    "huc_cd": "14010001"
  },
  {
    "agency_cd": "USGS",
    "site_no": "09036000",
    "station_nm": "WILLIAMS FORK NEAR LEAL, CO.",
    "site_tp_cd": "ST",
    "dec_lat_va": "39.833875",
    "dec_long_va": "-106.0564079",
    "coord_acy_cd": "M",
    "dec_coord_datum_cd": "NAD83",
    "alt_va": " 8790.00",
    "alt_acy_va": " 10",
    "alt_datum_cd": "NGVD29",
    "huc_cd": "14010001"
  },
  {
    "agency_cd": "USGS",
    "site_no": "09037500",
    "station_nm": "WILLIAMS FORK NEAR PARSHALL, CO",
    "site_tp_cd": "ST",
    "dec_lat_va": "40.0002",
    "dec_long_va": "-106.1803667",
    "coord_acy_cd": "5",
    "dec_coord_datum_cd": "NAD83",
    "alt_va": " 7808.95",
    "alt_acy_va": "  2",
    "alt_datum_cd": "NGVD29",
    "huc_cd": "14010001"
  },
  {
    "agency_cd": "USGS",
    "site_no": "09038500",
    "station_nm": "WILLIAMS FORK BELOW WILLIAMS FORK RESERVOIR, CO",
    "site_tp_cd": "ST",
    "dec_lat_va": "40.03592778",
    "dec_long_va": "-106.2050139",
    "coord_acy_cd": "F",
    "dec_coord_datum_cd": "NAD83",
    "alt_va": " 7615.00",
    "alt_acy_va": "  2",
    "alt_datum_cd": "NGVD29",
    "huc_cd": "14010001"
  },
  {
    "agency_cd": "USGS",
    "site_no": "09041090",
    "station_nm": "MUDDY CREEK ABOVE ANTELOPE CREEK NR. KREMMLING, CO",
    "site_tp_cd": "ST",
    "dec_lat_va": "40.2024844",
    "dec_long_va": "-106.4225335",
    "coord_acy_cd": "F",
    "dec_coord_datum_cd": "NAD83",
    "alt_va": " 7520",
    "alt_acy_va": " 15",
    "alt_datum_cd": "NGVD29",
    "huc_cd": "14010001"
  },
  {
    "agency_cd": "USGS",
    "site_no": "09041395",
    "station_nm": "WOLFORD MTN RESERVOIR NR KREMMLING, CO",
    "site_tp_cd": "LK",
    "dec_lat_va": "40.1127629",
    "dec_long_va": "-106.4150324",
    "coord_acy_cd": "F",
    "dec_coord_datum_cd": "NAD83",
    "alt_va": " 7390",
    "alt_acy_va": " 20",
    "alt_datum_cd": "NGVD29",
    "huc_cd": "14010001"
  },
  {
    "agency_cd": "USGS",
    "site_no": "09041400",
    "station_nm": "MUDDY CRK BLW WOLFORD MTN RESER. NR KREMMLING, CO",
    "site_tp_cd": "ST",
    "dec_lat_va": "40.10859628",
    "dec_long_va": "-106.4139212",
    "coord_acy_cd": "F",
    "dec_coord_datum_cd": "NAD83",
    "alt_va": " 7380",
    "alt_acy_va": " 20",
    "alt_datum_cd": "NGVD29",
    "huc_cd": "14010001"
  },
  {
    "agency_cd": "USGS",
    "site_no": "09041900",
    "station_nm": "MONTE CRISTO DIVERSION NEAR HOOSIER PASS, CO",
    "site_tp_cd": "ST",
    "dec_lat_va": "39.38082156",
    "dec_long_va": "-106.0714082",
    "coord_acy_cd": "F",
    "dec_coord_datum_cd": "NAD83",
    "alt_va": " 10986",
    "alt_acy_va": " 15",
    "alt_datum_cd": "NGVD29",
    "huc_cd": "14010002"
  },
  {
    "agency_cd": "USGS",
    "site_no": "09044300",
    "station_nm": "BEMROSE-HOOSIER DIVERSION NEAR HOOSIER PASS, CO",
    "site_tp_cd": "ST",
    "dec_lat_va": "39.38054378",
    "dec_long_va": "-106.0708526",
    "coord_acy_cd": "F",
    "dec_coord_datum_cd": "NAD83",
    "alt_va": " 10986",
    "alt_acy_va": " 15",
    "alt_datum_cd": "NGVD29",
    "huc_cd": "14010002"
  },
  {
    "agency_cd": "USGS",
    "site_no": "09044800",
    "station_nm": "MCCULLOUGH-SP-CRYS-DIVERSION NEAR HOOSIER PASS, CO",
    "site_tp_cd": "ST",
    "dec_lat_va": "39.38082156",
    "dec_long_va": "-106.0711304",
    "coord_acy_cd": "F",
    "dec_coord_datum_cd": "NAD83",
    "alt_va": " 10986",
    "alt_acy_va": " 15",
    "alt_datum_cd": "NGVD29",
    "huc_cd": "14010002"
  },
  {
    "agency_cd": "USGS",
    "site_no": "09046490",
    "station_nm": "BLUE RIVER AT BLUE RIVER, CO.",
    "site_tp_cd": "ST",
    "dec_lat_va": "39.45582067",
    "dec_long_va": "-106.0316849",
    "coord_acy_cd": "R",
    "dec_coord_datum_cd": "NAD83",
    "alt_va": " 9835",
    "alt_acy_va": " 20",
    "alt_datum_cd": "NGVD29",
    "huc_cd": "14010002"
  },
  {
    "agency_cd": "USGS",
    "site_no": "09046600",
    "station_nm": "BLUE RIVER NEAR DILLON, CO",
    "site_tp_cd": "ST",
    "dec_lat_va": "39.56665329",
    "dec_long_va": "-106.0494632",
    "coord_acy_cd": "S",
    "dec_coord_datum_cd": "NAD83",
    "alt_va": " 9020",
    "alt_acy_va": " 20",
    "alt_datum_cd": "NGVD29",
    "huc_cd": "14010002"
  },
  {
    "agency_cd": "USGS",
    "site_no": "09047500",
    "station_nm": "SNAKE RIVER NEAR MONTEZUMA, CO",
    "site_tp_cd": "ST",
    "dec_lat_va": "39.6053611",
    "dec_long_va": "-105.9431306",
    "coord_acy_cd": "5",
    "dec_coord_datum_cd": "NAD83",
    "alt_va": " 9320",
    "alt_acy_va": " 15",
    "alt_datum_cd": "NGVD29",
    "huc_cd": "14010002"
  },
  {
    "agency_cd": "USGS",
    "site_no": "09047700",
    "station_nm": "KEYSTONE GULCH NEAR DILLON, CO.",
    "site_tp_cd": "ST",
    "dec_lat_va": "39.59443117",
    "dec_long_va": "-105.9725158",
    "coord_acy_cd": "F",
    "dec_coord_datum_cd": "NAD83",
    "alt_va": " 9350.00",
    "alt_acy_va": " 15",
    "alt_datum_cd": "NGVD29",
    "huc_cd": "14010002"
  },
  {
    "agency_cd": "USGS",
    "site_no": "09050100",
    "station_nm": "TENMILE CREEK BL NORTH TENMILE C, AT FRISCO, CO.",
    "site_tp_cd": "ST",
    "dec_lat_va": "39.57526424",
    "dec_long_va": "-106.1105765",
    "coord_acy_cd": "M",
    "dec_coord_datum_cd": "NAD83",
    "alt_va": " 9100",
    "alt_acy_va": " 20",
    "alt_datum_cd": "NGVD29",
    "huc_cd": "14010002"
  },
  {
    "agency_cd": "USGS",
    "site_no": "09050700",
    "station_nm": "BLUE RIVER BELOW DILLON, CO.",
    "site_tp_cd": "ST",
    "dec_lat_va": "39.625542",
    "dec_long_va": "-106.0664082",
    "coord_acy_cd": "S",
    "dec_coord_datum_cd": "NAD83",
    "alt_va": " 8760.00",
    "alt_acy_va": " 20",
    "alt_datum_cd": "NGVD29",
    "huc_cd": "14010002"
  },
  {
    "agency_cd": "USGS",
    "site_no": "09051050",
    "station_nm": "STRAIGHT CR BLW LASKEY GULCH NR DILLON, CO",
    "site_tp_cd": "ST",
    "dec_lat_va": "39.6397087",
    "dec_long_va": "-106.040296",
    "coord_acy_cd": "M",
    "dec_coord_datum_cd": "NAD83",
    "alt_va": " 9070",
    "alt_acy_va": " 10",
    "alt_datum_cd": "NGVD29",
    "huc_cd": "14010002"
  },
  {
    "agency_cd": "USGS",
    "site_no": "09056500",
    "station_nm": "ELLIOTT CREEK FEEDER CANAL TO GREEN MTN RES, CO",
    "site_tp_cd": "ST-CA",
    "dec_lat_va": "39.873725",
    "dec_long_va": "-106.3305972",
    "coord_acy_cd": "S",
    "dec_coord_datum_cd": "NAD83",
    "alt_va": " 8054.92",
    "alt_acy_va": "1.0",
    "alt_datum_cd": "NGVD29",
    "huc_cd": "14010002"
  },
  {
    "agency_cd": "USGS",
    "site_no": "09057500",
    "station_nm": "BLUE RIVER BELOW GREEN MOUNTAIN RESERVOIR, CO",
    "site_tp_cd": "ST",
    "dec_lat_va": "39.88026354",
    "dec_long_va": "-106.3339175",
    "coord_acy_cd": "F",
    "dec_coord_datum_cd": "NAD83",
    "alt_va": " 7682.66",
    "alt_acy_va": " 15",
    "alt_datum_cd": "NGVD29",
    "huc_cd": "14010002"
  },
  {
    "agency_cd": "USGS",
    "site_no": "09058000",
    "station_nm": "COLORADO RIVER NEAR KREMMLING, CO",
    "site_tp_cd": "ST",
    "dec_lat_va": "40.03665248",
    "dec_long_va": "-106.4400324",
    "coord_acy_cd": "S",
    "dec_coord_datum_cd": "NAD83",
    "alt_va": " 7320",
    "alt_acy_va": " 10",
    "alt_datum_cd": "NGVD29",
    "huc_cd": "14010001"
  },
  {
    "agency_cd": "USGS",
    "site_no": "09058500",
    "station_nm": "PINEY RIVER BELOW PINEY LAKE, NEAR MINTURN, CO.",
    "site_tp_cd": "ST",
    "dec_lat_va": "39.70804158",
    "dec_long_va": "-106.4266968",
    "coord_acy_cd": "S",
    "dec_coord_datum_cd": "NAD83",
    "alt_va": " 9145.25",
    "alt_acy_va": ".01",
    "alt_datum_cd": "NGVD29",
    "huc_cd": "14010001"
  },
  {
    "agency_cd": "USGS",
    "site_no": "09059500",
    "station_nm": "PINEY RIVER NEAR STATE BRIDGE, CO",
    "site_tp_cd": "ST",
    "dec_lat_va": "39.7957222",
    "dec_long_va": "-106.5743472",
    "coord_acy_cd": "S",
    "dec_coord_datum_cd": "NAD83",
    "alt_va": " 7272.35",
    "alt_acy_va": "  2",
    "alt_datum_cd": "NGVD29",
    "huc_cd": "14010001"
  },
  {
    "agency_cd": "USGS",
    "site_no": "09060799",
    "station_nm": "COLORADO RIVER AT CATAMOUNT BRIDGE, CO",
    "site_tp_cd": "ST",
    "dec_lat_va": "39.8911",
    "dec_long_va": "-106.8316944",
    "coord_acy_cd": "M",
    "dec_coord_datum_cd": "NAD83",
    "alt_va": " 6544",
    "alt_acy_va": "4.3",
    "alt_datum_cd": "NAVD88",
    "huc_cd": "14010001"
  },
  {
    "agency_cd": "USGS",
    "site_no": "09061600",
    "station_nm": "EAST FORK EAGLE RIVER NEAR CLIMAX, CO",
    "site_tp_cd": "ST",
    "dec_lat_va": "39.4102654",
    "dec_long_va": "-106.2497468",
    "coord_acy_cd": "S",
    "dec_coord_datum_cd": "NAD83",
    "alt_va": "10000.00",
    "alt_acy_va": " 20",
    "alt_datum_cd": "NGVD29",
    "huc_cd": "14010003"
  },
  {
    "agency_cd": "USGS",
    "site_no": "09063000",
    "station_nm": "EAGLE RIVER AT RED CLIFF, CO.",
    "site_tp_cd": "ST",
    "dec_lat_va": "39.50831949",
    "dec_long_va": "-106.3666948",
    "coord_acy_cd": "S",
    "dec_coord_datum_cd": "NAD83",
    "alt_va": " 8653.80",
    "alt_acy_va": ".01",
    "alt_datum_cd": "NGVD29",
    "huc_cd": "14010003"
  },
  {
    "agency_cd": "USGS",
    "site_no": "09063900",
    "station_nm": "MISSOURI CREEK NEAR GOLD PARK, CO.",
    "site_tp_cd": "ST",
    "dec_lat_va": "39.39026486",
    "dec_long_va": "-106.4700294",
    "coord_acy_cd": "F",
    "dec_coord_datum_cd": "NAD83",
    "alt_va": " 9980",
    "alt_acy_va": " 15",
    "alt_datum_cd": "NGVD29",
    "huc_cd": "14010003"
  },
  {
    "agency_cd": "USGS",
    "site_no": "09064000",
    "station_nm": "HOMESTAKE CREEK AT GOLD PARK, CO.",
    "site_tp_cd": "ST",
    "dec_lat_va": "39.4055426",
    "dec_long_va": "-106.433362",
    "coord_acy_cd": "F",
    "dec_coord_datum_cd": "NAD83",
    "alt_va": " 9200",
    "alt_acy_va": " 15",
    "alt_datum_cd": "NGVD29",
    "huc_cd": "14010003"
  },
  {
    "agency_cd": "USGS",
    "site_no": "09064600",
    "station_nm": "EAGLE RIVER NEAR MINTURN, CO",
    "site_tp_cd": "ST",
    "dec_lat_va": "39.55387495",
    "dec_long_va": "-106.402529",
    "coord_acy_cd": "S",
    "dec_coord_datum_cd": "NAD83",
    "alt_va": " 8078.37",
    "alt_acy_va": ".01",
    "alt_datum_cd": "NGVD29",
    "huc_cd": "14010003"
  },
  {
    "agency_cd": "USGS",
    "site_no": "09065100",
    "station_nm": "CROSS CREEK NEAR MINTURN, CO",
    "site_tp_cd": "ST",
    "dec_lat_va": "39.56829167",
    "dec_long_va": "-106.4124306",
    "coord_acy_cd": "S",
    "dec_coord_datum_cd": "NAD83",
    "alt_va": " 7992",
    "alt_acy_va": "  5",
    "alt_datum_cd": "NGVD29",
    "huc_cd": "14010003"
  },
  {
    "agency_cd": "USGS",
    "site_no": "09065500",
    "station_nm": "GORE CREEK AT UPPER STATION, NEAR MINTURN, CO.",
    "site_tp_cd": "ST",
    "dec_lat_va": "39.6258193",
    "dec_long_va": "-106.2780823",
    "coord_acy_cd": "S",
    "dec_coord_datum_cd": "NAD83",
    "alt_va": " 8600",
    "alt_acy_va": " 20",
    "alt_datum_cd": "NGVD29",
    "huc_cd": "14010003"
  },
  {
    "agency_cd": "USGS",
    "site_no": "09066000",
    "station_nm": "BLACK GORE CREEK NEAR MINTURN, CO.",
    "site_tp_cd": "ST",
    "dec_lat_va": "39.59637495",
    "dec_long_va": "-106.2650264",
    "coord_acy_cd": "F",
    "dec_coord_datum_cd": "NAD83",
    "alt_va": " 9150.00",
    "alt_acy_va": " 15",
    "alt_datum_cd": "NGVD29",
    "huc_cd": "14010003"
  },
  {
    "agency_cd": "USGS",
    "site_no": "09066200",
    "station_nm": "BOOTH CREEK NEAR MINTURN, CO.",
    "site_tp_cd": "ST",
    "dec_lat_va": "39.64831927",
    "dec_long_va": "-106.3230833",
    "coord_acy_cd": "M",
    "dec_coord_datum_cd": "NAD83",
    "alt_va": " 8325",
    "alt_acy_va": " 10",
    "alt_datum_cd": "NGVD29",
    "huc_cd": "14010003"
  },
  {
    "agency_cd": "USGS",
    "site_no": "09066300",
    "station_nm": "MIDDLE CREEK NEAR MINTURN, CO.",
    "site_tp_cd": "ST",
    "dec_lat_va": "39.6458193",
    "dec_long_va": "-106.3822512",
    "coord_acy_cd": "M",
    "dec_coord_datum_cd": "NAD83",
    "alt_va": " 8200",
    "alt_acy_va": " 10",
    "alt_datum_cd": "NGVD29",
    "huc_cd": "14010003"
  },
  {
    "agency_cd": "USGS",
    "site_no": "09066325",
    "station_nm": "GORE CREEK ABV RED SANDSTONE CREEK AT VAIL, CO",
    "site_tp_cd": "ST",
    "dec_lat_va": "39.6410971",
    "dec_long_va": "-106.3947515",
    "coord_acy_cd": "F",
    "dec_coord_datum_cd": "NAD83",
    "alt_va": " 8055",
    "alt_acy_va": " 10",
    "alt_datum_cd": "NGVD29",
    "huc_cd": "14010003"
  },
  {
    "agency_cd": "USGS",
    "site_no": "09066510",
    "station_nm": "GORE CREEK AT MOUTH NEAR MINTURN, CO",
    "site_tp_cd": "ST",
    "dec_lat_va": "39.60943048",
    "dec_long_va": "-106.447808",
    "coord_acy_cd": "M",
    "dec_coord_datum_cd": "NAD83",
    "alt_va": " 7730",
    "alt_acy_va": " 20",
    "alt_datum_cd": "NGVD29",
    "huc_cd": "14010003"
  },
  {
    "agency_cd": "USGS",
    "site_no": "09067000",
    "station_nm": "BEAVER CREEK AT AVON, CO",
    "site_tp_cd": "ST",
    "dec_lat_va": "39.62970826",
    "dec_long_va": "-106.5228096",
    "coord_acy_cd": "S",
    "dec_coord_datum_cd": "NAD83",
    "alt_va": " 7453",
    "alt_acy_va": " 15",
    "alt_datum_cd": "NGVD29",
    "huc_cd": "14010003"
  },
  {
    "agency_cd": "USGS",
    "site_no": "09067005",
    "station_nm": "EAGLE RIVER AT AVON, CO.",
    "site_tp_cd": "ST",
    "dec_lat_va": "39.6316527",
    "dec_long_va": "-106.5225318",
    "coord_acy_cd": "F",
    "dec_coord_datum_cd": "NAD83",
    "alt_va": " 7410",
    "alt_acy_va": " 15",
    "alt_datum_cd": "NGVD29",
    "huc_cd": "14010003"
  },
  {
    "agency_cd": "USGS",
    "site_no": "09067020",
    "station_nm": "EAGLE R BLW WASTEWATER TREATMENT PLANT AT AVON, CO",
    "site_tp_cd": "ST",
    "dec_lat_va": "39.6348611",
    "dec_long_va": "-106.5319444",
    "coord_acy_cd": "5",
    "dec_coord_datum_cd": "NAD83",
    "alt_va": " 7380",
    "alt_acy_va": " 10",
    "alt_datum_cd": "NAVD88",
    "huc_cd": "14010003"
  },
  {
    "agency_cd": "USGS",
    "site_no": "09067200",
    "station_nm": "LAKE CREEK NEAR EDWARDS, CO",
    "site_tp_cd": "ST",
    "dec_lat_va": "39.647486",
    "dec_long_va": "-106.6092003",
    "coord_acy_cd": "F",
    "dec_coord_datum_cd": "NAD83",
    "alt_va": " 7160",
    "alt_acy_va": " 15",
    "alt_datum_cd": "NGVD29",
    "huc_cd": "14010003"
  },
  {
    "agency_cd": "USGS",
    "site_no": "09070000",
    "station_nm": "EAGLE RIVER BELOW GYPSUM, CO.",
    "site_tp_cd": "ST",
    "dec_lat_va": "39.64942954",
    "dec_long_va": "-106.9536554",
    "coord_acy_cd": "S",
    "dec_coord_datum_cd": "NAD83",
    "alt_va": " 6275.11",
    "alt_acy_va": ".02",
    "alt_datum_cd": "NGVD29",
    "huc_cd": "14010003"
  },
  {
    "agency_cd": "USGS",
    "site_no": "09070500",
    "station_nm": "COLORADO RIVER NEAR DOTSERO, CO",
    "site_tp_cd": "ST",
    "dec_lat_va": "39.6446111",
    "dec_long_va": "-107.0780139",
    "coord_acy_cd": "S",
    "dec_coord_datum_cd": "NAD83",
    "alt_va": " 6130",
    "alt_acy_va": " 20",
    "alt_datum_cd": "NGVD29",
    "huc_cd": "14010001"
  },
  {
    "agency_cd": "USGS",
    "site_no": "09071750",
    "station_nm": "COLORADO RIVER ABOVE GLENWOOD SPRINGS, CO",
    "site_tp_cd": "ST",
    "dec_lat_va": "39.5588711",
    "dec_long_va": "-107.2908874",
    "coord_acy_cd": "S",
    "dec_coord_datum_cd": "NAD83",
    "alt_va": " 5760",
    "alt_acy_va": "020",
    "alt_datum_cd": "NGVD29",
    "huc_cd": "14010001"
  },
  {
    "agency_cd": "USGS",
    "site_no": "09072550",
    "station_nm": "ROARING FORK RIVER ABV LOST MAN CR NEAR ASPEN, CO",
    "site_tp_cd": "ST",
    "dec_lat_va": "39.1193611",
    "dec_long_va": "-106.6239167",
    "coord_acy_cd": "S",
    "dec_coord_datum_cd": "NAD83",
    "alt_va": " 10520",
    "alt_acy_va": " 15",
    "alt_datum_cd": "NGVD29",
    "huc_cd": "14010004"
  },
  {
    "agency_cd": "USGS",
    "site_no": "09073005",
    "station_nm": "LINCOLN CREEK BELOW GRIZZLY RESERVOIR NR ASPEN, CO",
    "site_tp_cd": "ST",
    "dec_lat_va": "39.0802361",
    "dec_long_va": "-106.6165833",
    "coord_acy_cd": "5",
    "dec_coord_datum_cd": "NAD83",
    "alt_va": " 10510",
    "alt_acy_va": " 15",
    "alt_datum_cd": "NGVD29",
    "huc_cd": "14010004"
  },
  {
    "agency_cd": "USGS",
    "site_no": "09073300",
    "station_nm": "ROARING FORK RIVER AB DIFFICULT C NR ASPEN, CO.",
    "site_tp_cd": "ST",
    "dec_lat_va": "39.14109959",
    "dec_long_va": "-106.7742039",
    "coord_acy_cd": "F",
    "dec_coord_datum_cd": "NAD83",
    "alt_va": " 8120.00",
    "alt_acy_va": " 15",
    "alt_datum_cd": "NGVD29",
    "huc_cd": "14010004"
  },
  {
    "agency_cd": "USGS",
    "site_no": "09073400",
    "station_nm": "ROARING FORK RIVER NEAR ASPEN, CO.",
    "site_tp_cd": "ST",
    "dec_lat_va": "39.17998755",
    "dec_long_va": "-106.8019826",
    "coord_acy_cd": "S",
    "dec_coord_datum_cd": "NAD83",
    "alt_va": " 8014.01",
    "alt_acy_va": " 20",
    "alt_datum_cd": "NGVD29",
    "huc_cd": "14010004"
  },
  {
    "agency_cd": "USGS",
    "site_no": "09073720",
    "station_nm": "HUNTER CREEK FEEDER CONDUIT NEAR ASPEN, CO",
    "site_tp_cd": "FA-DV",
    "dec_lat_va": "39.20748889",
    "dec_long_va": "-106.6791167",
    "coord_acy_cd": "F",
    "dec_coord_datum_cd": "NAD83",
    "alt_va": "10177.00",
    "alt_acy_va": " 15",
    "alt_datum_cd": "NGVD29",
    "huc_cd": "14010004"
  },
  {
    "agency_cd": "USGS",
    "site_no": "09073721",
    "station_nm": "HUNTER CREEK CONDUIT BYPASS NEAR ASPEN, CO",
    "site_tp_cd": "ST",
    "dec_lat_va": "39.20756944",
    "dec_long_va": "-106.6803917",
    "coord_acy_cd": "F",
    "dec_coord_datum_cd": "NAD83",
    "alt_va": " 10172",
    "alt_acy_va": "  2",
    "alt_datum_cd": "NGVD29",
    "huc_cd": "14010004"
  },
  {
    "agency_cd": "USGS",
    "site_no": "09073790",
    "station_nm": "MIDWAY CREEK FEEDER CONDUIT NEAR ASPEN, CO",
    "site_tp_cd": "FA-DV",
    "dec_lat_va": "39.1902658",
    "dec_long_va": "-106.6850344",
    "coord_acy_cd": "F",
    "dec_coord_datum_cd": "NAD83",
    "alt_va": "10186.20",
    "alt_acy_va": " 15",
    "alt_datum_cd": "NGVD29",
    "huc_cd": "14010004"
  },
  {
    "agency_cd": "USGS",
    "site_no": "09073791",
    "station_nm": "MIDWAY CREEK CONDUIT BYPASS NEAR ASPEN, CO",
    "site_tp_cd": "ST",
    "dec_lat_va": "39.19102778",
    "dec_long_va": "-106.6859",
    "coord_acy_cd": "S",
    "dec_coord_datum_cd": "NAD83",
    "alt_va": "10181.92",
    "alt_acy_va": "  1",
    "alt_datum_cd": "NGVD29",
    "huc_cd": "14010004"
  },
  {
    "agency_cd": "USGS",
    "site_no": "09073890",
    "station_nm": "NO NAME CREEK FEEDER CONDUIT NEAR ASPEN, CO",
    "site_tp_cd": "FA-DV",
    "dec_lat_va": "39.1827657",
    "dec_long_va": "-106.7200355",
    "coord_acy_cd": "F",
    "dec_coord_datum_cd": "NAD83",
    "alt_va": "10165.50",
    "alt_acy_va": " 15",
    "alt_datum_cd": "NGVD29",
    "huc_cd": "14010004"
  },
  {
    "agency_cd": "USGS",
    "site_no": "09073891",
    "station_nm": "NO NAME CREEK CONDUIT BYPASS NEAR ASPEN, CO",
    "site_tp_cd": "ST",
    "dec_lat_va": "39.18360738",
    "dec_long_va": "-106.7198577",
    "coord_acy_cd": "F",
    "dec_coord_datum_cd": "NAD83",
    "alt_va": " 10158.0",
    "alt_acy_va": "1.0",
    "alt_datum_cd": "NGVD29",
    "huc_cd": "14010004"
  },
  {
    "agency_cd": "USGS",
    "site_no": "09074500",
    "station_nm": "HUNTER CREEK AT ASPEN, CO",
    "site_tp_cd": "ST",
    "dec_lat_va": "39.19688889",
    "dec_long_va": "-106.8189167",
    "coord_acy_cd": "5",
    "dec_coord_datum_cd": "NAD83",
    "alt_va": " 7840",
    "alt_acy_va": " 20",
    "alt_datum_cd": "NAVD88",
    "huc_cd": "14010004"
  },
  {
    "agency_cd": "USGS",
    "site_no": "09076000",
    "station_nm": "MAROON CREEK NEAR ASPEN, CO.",
    "site_tp_cd": "ST",
    "dec_lat_va": "39.1634083",
    "dec_long_va": "-106.8807472",
    "coord_acy_cd": "F",
    "dec_coord_datum_cd": "NAD83",
    "alt_va": " 8231",
    "alt_acy_va": "4.3",
    "alt_datum_cd": "NAVD88",
    "huc_cd": "14010004"
  },
  {
    "agency_cd": "USGS",
    "site_no": "09076300",
    "station_nm": "ROARING FORK RIVER BLW MAROON CREEK NR ASPEN, CO",
    "site_tp_cd": "ST",
    "dec_lat_va": "39.2232",
    "dec_long_va": "-106.8573083",
    "coord_acy_cd": "T",
    "dec_coord_datum_cd": "NAD83",
    "alt_va": " 7575",
    "alt_acy_va": "4.3",
    "alt_datum_cd": "NAVD88",
    "huc_cd": "14010004"
  },
  {
    "agency_cd": "USGS",
    "site_no": "09078141",
    "station_nm": "NORTH CUNNINGHAM CREEK CONDUIT BYPASS NR NORRIE,CO",
    "site_tp_cd": "ST",
    "dec_lat_va": "39.33596219",
    "dec_long_va": "-106.5442115",
    "coord_acy_cd": "F",
    "dec_coord_datum_cd": "NAD83",
    "alt_va": " 10077",
    "alt_acy_va": "  2",
    "alt_datum_cd": "NGVD29",
    "huc_cd": "14010004"
  },
  {
    "agency_cd": "USGS",
    "site_no": "09078475",
    "station_nm": "LAST CHANCE CREEK NEAR NORRIE, CO",
    "site_tp_cd": "ST",
    "dec_lat_va": "39.34388889",
    "dec_long_va": "-106.6565278",
    "coord_acy_cd": "S",
    "dec_coord_datum_cd": "NAD83",
    "alt_va": " 8550",
    "alt_acy_va": " 10",
    "alt_datum_cd": "NGVD29",
    "huc_cd": "14010004"
  },
  {
    "agency_cd": "USGS",
    "site_no": "09079450",
    "station_nm": "LIME CREEK NEAR THOMASVILLE, CO",
    "site_tp_cd": "ST",
    "dec_lat_va": "39.3604111",
    "dec_long_va": "-106.6852444",
    "coord_acy_cd": "S",
    "dec_coord_datum_cd": "NAD83",
    "alt_va": " 8144",
    "alt_acy_va": "  2",
    "alt_datum_cd": "NGVD29",
    "huc_cd": "14010004"
  },
  {
    "agency_cd": "USGS",
    "site_no": "09080400",
    "station_nm": "FRYINGPAN RIVER NEAR RUEDI, CO.",
    "site_tp_cd": "ST",
    "dec_lat_va": "39.36554075",
    "dec_long_va": "-106.8255948",
    "coord_acy_cd": "F",
    "dec_coord_datum_cd": "NAD83",
    "alt_va": " 7473.25",
    "alt_acy_va": " 15",
    "alt_datum_cd": "NGVD29",
    "huc_cd": "14010004"
  },
  {
    "agency_cd": "USGS",
    "site_no": "09081000",
    "station_nm": "ROARING FORK RIVER NEAR EMMA, CO",
    "site_tp_cd": "ST",
    "dec_lat_va": "39.37331729",
    "dec_long_va": "-107.0839367",
    "coord_acy_cd": "S",
    "dec_coord_datum_cd": "NAD83",
    "alt_va": " 6470",
    "alt_acy_va": " 20",
    "alt_datum_cd": "NGVD29",
    "huc_cd": "14010004"
  },
  {
    "agency_cd": "USGS",
    "site_no": "09081600",
    "station_nm": "CRYSTAL RIVER ABV AVALANCHE CRK, NEAR REDSTONE, CO",
    "site_tp_cd": "ST",
    "dec_lat_va": "39.23263889",
    "dec_long_va": "-107.2275",
    "coord_acy_cd": "5",
    "dec_coord_datum_cd": "NAD83",
    "alt_va": " 6905",
    "alt_acy_va": " 15",
    "alt_datum_cd": "NGVD29",
    "huc_cd": "14010004"
  },
  {
    "agency_cd": "USGS",
    "site_no": "09085000",
    "station_nm": "ROARING FORK RIVER AT GLENWOOD SPRINGS, CO.",
    "site_tp_cd": "ST",
    "dec_lat_va": "39.54359307",
    "dec_long_va": "-107.3294984",
    "coord_acy_cd": "S",
    "dec_coord_datum_cd": "NAD83",
    "alt_va": " 5720.73",
    "alt_acy_va": " 20",
    "alt_datum_cd": "NGVD29",
    "huc_cd": "14010004"
  },
  {
    "agency_cd": "USGS",
    "site_no": "09085100",
    "station_nm": "COLORADO RIVER BELOW GLENWOOD SPRINGS, CO",
    "site_tp_cd": "ST",
    "dec_lat_va": "39.5549819",
    "dec_long_va": "-107.337554",
    "coord_acy_cd": "F",
    "dec_coord_datum_cd": "NAD83",
    "alt_va": " 5700.75",
    "alt_acy_va": " 15",
    "alt_datum_cd": "NGVD29",
    "huc_cd": "14010005"
  },
  {
    "agency_cd": "USGS",
    "site_no": "09085150",
    "station_nm": "COLORADO R ABV SOUTH CANYON CR NR GLENWOOD SPGS CO",
    "site_tp_cd": "ST",
    "dec_lat_va": "39.56166667",
    "dec_long_va": "-107.4066667",
    "coord_acy_cd": "S",
    "dec_coord_datum_cd": "NAD83",
    "alt_va": " 5640",
    "alt_acy_va": " 20",
    "alt_datum_cd": "NGVD29",
    "huc_cd": "14010005"
  },
  {
    "agency_cd": "USGS",
    "site_no": "09091900",
    "station_nm": "RIFLE GAP RESERVOIR NEAR RIFLE, CO",
    "site_tp_cd": "LK",
    "dec_lat_va": "39.62692468",
    "dec_long_va": "-107.7575645",
    "coord_acy_cd": "S",
    "dec_coord_datum_cd": "NAD83",
    "alt_va": " 5989",
    "alt_acy_va": " 20",
    "alt_datum_cd": "NGVD29",
    "huc_cd": "14010005"
  },
  {
    "agency_cd": "USGS",
    "site_no": "09095500",
    "station_nm": "COLORADO RIVER NEAR CAMEO, CO.",
    "site_tp_cd": "ST",
    "dec_lat_va": "39.2391463",
    "dec_long_va": "-108.2661946",
    "coord_acy_cd": "S",
    "dec_coord_datum_cd": "NAD83",
    "alt_va": " 4813.73",
    "alt_acy_va": " 20",
    "alt_datum_cd": "NGVD29",
    "huc_cd": "14010005"
  },
  {
    "agency_cd": "USGS",
    "site_no": "09096100",
    "station_nm": "VEGA RESERVOIR NEAR COLLBRAN, CO",
    "site_tp_cd": "LK",
    "dec_lat_va": "39.22497969",
    "dec_long_va": "-107.8117297",
    "coord_acy_cd": "F",
    "dec_coord_datum_cd": "NAD83",
    "alt_va": " 8000",
    "alt_acy_va": " 10",
    "alt_datum_cd": "NGVD29",
    "huc_cd": "14010005"
  },
  {
    "agency_cd": "USGS",
    "site_no": "09105000",
    "station_nm": "PLATEAU CREEK NEAR CAMEO, CO",
    "site_tp_cd": "ST",
    "dec_lat_va": "39.1836111",
    "dec_long_va": "-108.2683333",
    "coord_acy_cd": "S",
    "dec_coord_datum_cd": "NAD83",
    "alt_va": " 4840",
    "alt_acy_va": " 10",
    "alt_datum_cd": "NGVD29",
    "huc_cd": "14010005"
  },
  {
    "agency_cd": "USGS",
    "site_no": "09106150",
    "station_nm": "COLO RIVER BELOW GRAND VALLEY DIV NR PALISADE, CO",
    "site_tp_cd": "ST",
    "dec_lat_va": "39.09859226",
    "dec_long_va": "-108.355086",
    "coord_acy_cd": "F",
    "dec_coord_datum_cd": "NAD83",
    "alt_va": " 4670",
    "alt_acy_va": " 10",
    "alt_datum_cd": "NGVD29",
    "huc_cd": "14010005"
  },
  {
    "agency_cd": "USGS",
    "site_no": "09107000",
    "station_nm": "TAYLOR RIVER AT TAYLOR PARK, CO.",
    "site_tp_cd": "ST",
    "dec_lat_va": "38.86027127",
    "dec_long_va": "-106.5666966",
    "coord_acy_cd": "S",
    "dec_coord_datum_cd": "NAD83",
    "alt_va": " 9340.00",
    "alt_acy_va": " 10",
    "alt_datum_cd": "NGVD29",
    "huc_cd": "14020001"
  },
  {
    "agency_cd": "USGS",
    "site_no": "09108500",
    "station_nm": "TAYLOR PARK RESERVOIR AT TAYLOR PARK, CO.",
    "site_tp_cd": "LK",
    "dec_lat_va": "38.81771667",
    "dec_long_va": "-106.6052389",
    "coord_acy_cd": "M",
    "dec_coord_datum_cd": "NAD83",
    "alt_va": " 9336",
    "alt_acy_va": "4.3",
    "alt_datum_cd": "NAVD88",
    "huc_cd": "14020001"
  },
  {
    "agency_cd": "USGS",
    "site_no": "09109000",
    "station_nm": "TAYLOR RIVER BELOW TAYLOR PARK RESERVOIR, CO.",
    "site_tp_cd": "ST",
    "dec_lat_va": "38.8183269",
    "dec_long_va": "-106.6091977",
    "coord_acy_cd": "F",
    "dec_coord_datum_cd": "NAD83",
    "alt_va": " 9169.67",
    "alt_acy_va": " 15",
    "alt_datum_cd": "NGVD29",
    "huc_cd": "14020001"
  },
  {
    "agency_cd": "USGS",
    "site_no": "09110000",
    "station_nm": "TAYLOR RIVER AT ALMONT, CO.",
    "site_tp_cd": "ST",
    "dec_lat_va": "38.66443715",
    "dec_long_va": "-106.8453172",
    "coord_acy_cd": "F",
    "dec_coord_datum_cd": "NAD83",
    "alt_va": " 8010.76",
    "alt_acy_va": " 15",
    "alt_datum_cd": "NGVD29",
    "huc_cd": "14020001"
  },
  {
    "agency_cd": "USGS",
    "site_no": "09110990",
    "station_nm": "ELK CREEK AT COAL CREEK ABV CRESTED BUTTE, CO",
    "site_tp_cd": "ST",
    "dec_lat_va": "38.85665",
    "dec_long_va": "-107.0597722",
    "coord_acy_cd": "F",
    "dec_coord_datum_cd": "NAD83",
    "alt_va": " 9570",
    "alt_acy_va": "4.3",
    "alt_datum_cd": "NAVD88",
    "huc_cd": "14020001"
  },
  {
    "agency_cd": "USGS",
    "site_no": "09111250",
    "station_nm": "COAL CREEK ABV MCCORMICK DTCH AT CRESTED BUTTE, CO",
    "site_tp_cd": "ST",
    "dec_lat_va": "38.87155556",
    "dec_long_va": "-106.9852972",
    "coord_acy_cd": "T",
    "dec_coord_datum_cd": "NAD83",
    "alt_va": " 8903",
    "alt_acy_va": "4.3",
    "alt_datum_cd": "NAVD88",
    "huc_cd": "14020001"
  },
  {
    "agency_cd": "USGS",
    "site_no": "09112200",
    "station_nm": "EAST RIVER BELOW CEMENT CREEK NR CRESTED BUTTE, CO",
    "site_tp_cd": "ST",
    "dec_lat_va": "38.7841599",
    "dec_long_va": "-106.8708736",
    "coord_acy_cd": "S",
    "dec_coord_datum_cd": "NAD83",
    "alt_va": " 8440",
    "alt_acy_va": " 20",
    "alt_datum_cd": "NGVD29",
    "huc_cd": "14020001"
  },
  {
    "agency_cd": "USGS",
    "site_no": "09112500",
    "station_nm": "EAST RIVER AT ALMONT, CO",
    "site_tp_cd": "ST",
    "dec_lat_va": "38.66443715",
    "dec_long_va": "-106.848095",
    "coord_acy_cd": "S",
    "dec_coord_datum_cd": "NAD83",
    "alt_va": " 8006.29",
    "alt_acy_va": " 2.",
    "alt_datum_cd": "NGVD29",
    "huc_cd": "14020001"
  },
  {
    "agency_cd": "USGS",
    "site_no": "09113500",
    "station_nm": "OHIO CREEK NEAR BALDWIN, CO.",
    "site_tp_cd": "ST",
    "dec_lat_va": "38.70304167",
    "dec_long_va": "-106.9999472",
    "coord_acy_cd": "M",
    "dec_coord_datum_cd": "NAD83",
    "alt_va": " 8226",
    "alt_acy_va": "4.3",
    "alt_datum_cd": "NAVD88",
    "huc_cd": "14020002"
  },
  {
    "agency_cd": "USGS",
    "site_no": "09113980",
    "station_nm": "OHIO CREEK ABOVE MOUTH NR GUNNISON, CO",
    "site_tp_cd": "ST",
    "dec_lat_va": "38.5877696",
    "dec_long_va": "-106.931432",
    "coord_acy_cd": "S",
    "dec_coord_datum_cd": "NAD83",
    "alt_va": " 7770",
    "alt_acy_va": " 10",
    "alt_datum_cd": "NGVD29",
    "huc_cd": "14020002"
  },
  {
    "agency_cd": "USGS",
    "site_no": "09114500",
    "station_nm": "GUNNISON RIVER NEAR GUNNISON, CO.",
    "site_tp_cd": "ST",
    "dec_lat_va": "38.54193567",
    "dec_long_va": "-106.9497661",
    "coord_acy_cd": "F",
    "dec_coord_datum_cd": "NAD83",
    "alt_va": " 7655",
    "alt_acy_va": " 15",
    "alt_datum_cd": "NGVD29",
    "huc_cd": "14020002"
  },
  {
    "agency_cd": "USGS",
    "site_no": "09114520",
    "station_nm": "GUNNISON RIVER AT GUNNISON WHITEWATER PARK, CO",
    "site_tp_cd": "ST",
    "dec_lat_va": "38.5332722",
    "dec_long_va": "-106.9490861",
    "coord_acy_cd": "F",
    "dec_coord_datum_cd": "NAD83",
    "alt_va": " 7649",
    "alt_acy_va": "4.3",
    "alt_datum_cd": "NAVD88",
    "huc_cd": "14020002"
  },
  {
    "agency_cd": "USGS",
    "site_no": "09115500",
    "station_nm": "TOMICHI CREEK AT SARGENTS, CO",
    "site_tp_cd": "ST",
    "dec_lat_va": "38.39502778",
    "dec_long_va": "-106.422625",
    "coord_acy_cd": "S",
    "dec_coord_datum_cd": "NAD83",
    "alt_va": " 8416",
    "alt_acy_va": "  2",
    "alt_datum_cd": "NGVD29",
    "huc_cd": "14020003"
  },
  {
    "agency_cd": "USGS",
    "site_no": "09118450",
    "station_nm": "COCHETOPA CREEK BELOW ROCK CREEK NEAR PARLIN, CO",
    "site_tp_cd": "ST",
    "dec_lat_va": "38.3372222",
    "dec_long_va": "-106.7736111",
    "coord_acy_cd": "S",
    "dec_coord_datum_cd": "NAD83",
    "alt_va": " 8470",
    "alt_acy_va": " 10",
    "alt_datum_cd": "NGVD29",
    "huc_cd": "14020003"
  },
  {
    "agency_cd": "USGS",
    "site_no": "09119000",
    "station_nm": "TOMICHI CREEK AT GUNNISON, CO",
    "site_tp_cd": "ST",
    "dec_lat_va": "38.5211111",
    "dec_long_va": "-106.9409583",
    "coord_acy_cd": "5",
    "dec_coord_datum_cd": "NAD83",
    "alt_va": " 7628.58",
    "alt_acy_va": " 20",
    "alt_datum_cd": "NGVD29",
    "huc_cd": "14020003"
  },
  {
    "agency_cd": "USGS",
    "site_no": "09123450",
    "station_nm": "LAKE FORK BLW LAKE SAN CRISTOBAL NR LAKE CITY, CO",
    "site_tp_cd": "ST",
    "dec_lat_va": "37.9843611",
    "dec_long_va": "-107.2920972",
    "coord_acy_cd": "M",
    "dec_coord_datum_cd": "NAD83",
    "alt_va": " 9000",
    "alt_acy_va": "4.3",
    "alt_datum_cd": "NAVD88",
    "huc_cd": "14020002"
  },
  {
    "agency_cd": "USGS",
    "site_no": "09124010",
    "station_nm": "HENSON CREEK AT LAKE CITY, CO",
    "site_tp_cd": "ST",
    "dec_lat_va": "38.02566944",
    "dec_long_va": "-107.3163472",
    "coord_acy_cd": "M",
    "dec_coord_datum_cd": "NAD83",
    "alt_va": " 8668",
    "alt_acy_va": "4.3",
    "alt_datum_cd": "NAVD88",
    "huc_cd": "14020002"
  },
  {
    "agency_cd": "USGS",
    "site_no": "09124500",
    "station_nm": "LAKE FORK AT GATEVIEW, CO.",
    "site_tp_cd": "ST",
    "dec_lat_va": "38.2988834",
    "dec_long_va": "-107.2300557",
    "coord_acy_cd": "F",
    "dec_coord_datum_cd": "NAD83",
    "alt_va": " 7827.66",
    "alt_acy_va": " 15",
    "alt_datum_cd": "NGVD29",
    "huc_cd": "14020002"
  },
  {
    "agency_cd": "USGS",
    "site_no": "09125800",
    "station_nm": "SILVER JACK RESERVOIR NEAR CIMARRON, CO",
    "site_tp_cd": "LK",
    "dec_lat_va": "38.23276926",
    "dec_long_va": "-107.5417263",
    "coord_acy_cd": "F",
    "dec_coord_datum_cd": "NAD83",
    "alt_va": " 8925.60",
    "alt_acy_va": " 1.",
    "alt_datum_cd": "NGVD29",
    "huc_cd": "14020002"
  },
  {
    "agency_cd": "USGS",
    "site_no": "09126000",
    "station_nm": "CIMARRON RIVER NEAR CIMARRON, CO",
    "site_tp_cd": "ST",
    "dec_lat_va": "38.25819444",
    "dec_long_va": "-107.5461111",
    "coord_acy_cd": "S",
    "dec_coord_datum_cd": "NAD83",
    "alt_va": " 8641.48",
    "alt_acy_va": ".01",
    "alt_datum_cd": "NGVD29",
    "huc_cd": "14020002"
  },
  {
    "agency_cd": "USGS",
    "site_no": "09127000",
    "station_nm": "CIMARRON RIVER BLW SQUAW CREEK AT CIMARRON, CO",
    "site_tp_cd": "ST",
    "dec_lat_va": "38.44694444",
    "dec_long_va": "-107.5552222",
    "coord_acy_cd": "1",
    "dec_coord_datum_cd": "NAD83",
    "alt_va": " 6879.83",
    "alt_acy_va": "  1",
    "alt_datum_cd": "NGVD29",
    "huc_cd": "14020002"
  },